$GPGGA,140054.781,4050.200,N,01418.211,E,1,12,1.0,0.0,M,0.0,M,,*69
$GPGSA,A,3,01,02,03,04,05,06,07,08,09,10,11,12,1.0,1.0,1.0*30
$GPRMC,140054.781,A,4050.200,N,01418.211,E,038.9,303.9,260723,000.0,W*74
$GPGGA,140055.781,4050.207,N,01418.200,E,1,12,1.0,0.0,M,0.0,M,,*6F
$GPGSA,A,3,01,02,03,04,05,06,07,08,09,10,11,12,1.0,1.0,1.0*30
$GPRMC,140055.781,A,4050.207,N,01418.200,E,038.9,303.9,260723,000.0,W*72
$GPGGA,140056.781,4050.215,N,01418.189,E,1,12,1.0,0.0,M,0.0,M,,*6D
$GPGSA,A,3,01,02,03,04,05,06,07,08,09,10,11,12,1.0,1.0,1.0*30
$GPRMC,140056.781,A,4050.215,N,01418.189,E,038.9,303.9,260723,000.0,W*70
$GPGGA,140057.781,4050.222,N,01418.179,E,1,12,1.0,0.0,M,0.0,M,,*67
$GPGSA,A,3,01,02,03,04,05,06,07,08,09,10,11,12,1.0,1.0,1.0*30
$GPRMC,140057.781,A,4050.222,N,01418.179,E,038.9,303.9,260723,000.0,W*7A
$GPGGA,140058.781,4050.229,N,01418.168,E,1,12,1.0,0.0,M,0.0,M,,*63
$GPGSA,A,3,01,02,03,04,05,06,07,08,09,10,11,12,1.0,1.0,1.0*30
$GPRMC,140058.781,A,4050.229,N,01418.168,E,038.9,303.9,260723,000.0,W*7E
$GPGGA,140059.781,4050.236,N,01418.157,E,1,12,1.0,0.0,M,0.0,M,,*60
$GPGSA,A,3,01,02,03,04,05,06,07,08,09,10,11,12,1.0,1.0,1.0*30
$GPRMC,140059.781,A,4050.236,N,01418.157,E,038.9,303.9,260723,000.0,W*7D
$GPGGA,140100.781,4050.243,N,01418.147,E,1,12,1.0,0.0,M,0.0,M,,*6E
$GPGSA,A,3,01,02,03,04,05,06,07,08,09,10,11,12,1.0,1.0,1.0*30
$GPRMC,140100.781,A,4050.243,N,01418.147,E,038.9,303.9,260723,000.0,W*73
$GPGGA,140101.781,4050.250,N,01418.136,E,1,12,1.0,0.0,M,0.0,M,,*6B
$GPGSA,A,3,01,02,03,04,05,06,07,08,09,10,11,12,1.0,1.0,1.0*30
$GPRMC,140101.781,A,4050.250,N,01418.136,E,038.9,303.9,260723,000.0,W*76
$GPGGA,140102.781,4050.258,N,01418.125,E,1,12,1.0,0.0,M,0.0,M,,*62
$GPGSA,A,3,01,02,03,04,05,06,07,08,09,10,11,12,1.0,1.0,1.0*30
$GPRMC,140102.781,A,4050.258,N,01418.125,E,038.9,303.9,260723,000.0,W*7F
$GPGGA,140103.781,4050.265,N,01418.115,E,1,12,1.0,0.0,M,0.0,M,,*6E
$GPGSA,A,3,01,02,03,04,05,06,07,08,09,10,11,12,1.0,1.0,1.0*30
$GPRMC,140103.781,A,4050.265,N,01418.115,E,038.9,303.9,260723,000.0,W*73
$GPGGA,140104.781,4050.272,N,01418.104,E,1,12,1.0,0.0,M,0.0,M,,*6F
$GPGSA,A,3,01,02,03,04,05,06,07,08,09,10,11,12,1.0,1.0,1.0*30
$GPRMC,140104.781,A,4050.272,N,01418.104,E,038.9,303.9,260723,000.0,W*72
$GPGGA,140105.781,4050.279,N,01418.093,E,1,12,1.0,0.0,M,0.0,M,,*6A
$GPGSA,A,3,01,02,03,04,05,06,07,08,09,10,11,12,1.0,1.0,1.0*30
$GPRMC,140105.781,A,4050.279,N,01418.093,E,038.9,303.9,260723,000.0,W*77
$GPGGA,140106.781,4050.286,N,01418.083,E,1,12,1.0,0.0,M,0.0,M,,*68
$GPGSA,A,3,01,02,03,04,05,06,07,08,09,10,11,12,1.0,1.0,1.0*30
$GPRMC,140106.781,A,4050.286,N,01418.083,E,038.9,303.9,260723,000.0,W*75
$GPGGA,140107.781,4050.293,N,01418.072,E,1,12,1.0,0.0,M,0.0,M,,*63
$GPGSA,A,3,01,02,03,04,05,06,07,08,09,10,11,12,1.0,1.0,1.0*30
$GPRMC,140107.781,A,4050.293,N,01418.072,E,038.9,303.9,260723,000.0,W*7E
$GPGGA,140108.781,4050.300,N,01418.061,E,1,12,1.0,0.0,M,0.0,M,,*65
$GPGSA,A,3,01,02,03,04,05,06,07,08,09,10,11,12,1.0,1.0,1.0*30
$GPRMC,140108.781,A,4050.300,N,01418.061,E,038.9,303.9,260723,000.0,W*78
$GPGGA,140109.781,4050.308,N,01418.051,E,1,12,1.0,0.0,M,0.0,M,,*6F
$GPGSA,A,3,01,02,03,04,05,06,07,08,09,10,11,12,1.0,1.0,1.0*30
$GPRMC,140109.781,A,4050.308,N,01418.051,E,038.9,303.9,260723,000.0,W*72
$GPGGA,140110.781,4050.315,N,01418.040,E,1,12,1.0,0.0,M,0.0,M,,*6B
$GPGSA,A,3,01,02,03,04,05,06,07,08,09,10,11,12,1.0,1.0,1.0*30
$GPRMC,140110.781,A,4050.315,N,01418.040,E,038.9,303.9,260723,000.0,W*76
$GPGGA,140111.781,4050.322,N,01418.029,E,1,12,1.0,0.0,M,0.0,M,,*61
$GPGSA,A,3,01,02,03,04,05,06,07,08,09,10,11,12,1.0,1.0,1.0*30
$GPRMC,140111.781,A,4050.322,N,01418.029,E,038.9,303.9,260723,000.0,W*7C
$GPGGA,140112.781,4050.329,N,01418.019,E,1,12,1.0,0.0,M,0.0,M,,*6A
$GPGSA,A,3,01,02,03,04,05,06,07,08,09,10,11,12,1.0,1.0,1.0*30
$GPRMC,140112.781,A,4050.329,N,01418.019,E,038.9,303.9,260723,000.0,W*77
$GPGGA,140113.781,4050.336,N,01418.008,E,1,12,1.0,0.0,M,0.0,M,,*65
$GPGSA,A,3,01,02,03,04,05,06,07,08,09,10,11,12,1.0,1.0,1.0*30
$GPRMC,140113.781,A,4050.336,N,01418.008,E,038.9,303.9,260723,000.0,W*78
$GPGGA,140114.781,4050.343,N,01417.997,E,1,12,1.0,0.0,M,0.0,M,,*60
$GPGSA,A,3,01,02,03,04,05,06,07,08,09,10,11,12,1.0,1.0,1.0*30
$GPRMC,140114.781,A,4050.343,N,01417.997,E,038.9,303.9,260723,000.0,W*7D
$GPGGA,140115.781,4050.351,N,01417.986,E,1,12,1.0,0.0,M,0.0,M,,*62
$GPGSA,A,3,01,02,03,04,05,06,07,08,09,10,11,12,1.0,1.0,1.0*30
$GPRMC,140115.781,A,4050.351,N,01417.986,E,038.9,303.9,260723,000.0,W*7F
$GPGGA,140116.781,4050.358,N,01417.976,E,1,12,1.0,0.0,M,0.0,M,,*67
$GPGSA,A,3,01,02,03,04,05,06,07,08,09,10,11,12,1.0,1.0,1.0*30
$GPRMC,140116.781,A,4050.358,N,01417.976,E,038.9,303.9,260723,000.0,W*7A
$GPGGA,140117.781,4050.365,N,01417.965,E,1,12,1.0,0.0,M,0.0,M,,*6A
$GPGSA,A,3,01,02,03,04,05,06,07,08,09,10,11,12,1.0,1.0,1.0*30
$GPRMC,140117.781,A,4050.365,N,01417.965,E,038.9,303.9,260723,000.0,W*77
$GPGGA,140118.781,4050.372,N,01417.954,E,1,12,1.0,0.0,M,0.0,M,,*61
$GPGSA,A,3,01,02,03,04,05,06,07,08,09,10,11,12,1.0,1.0,1.0*30
$GPRMC,140118.781,A,4050.372,N,01417.954,E,038.9,303.9,260723,000.0,W*7C
$GPGGA,140119.781,4050.379,N,01417.944,E,1,12,1.0,0.0,M,0.0,M,,*6A
$GPGSA,A,3,01,02,03,04,05,06,07,08,09,10,11,12,1.0,1.0,1.0*30
$GPRMC,140119.781,A,4050.379,N,01417.944,E,038.9,303.9,260723,000.0,W*77
$GPGGA,140120.781,4050.386,N,01417.933,E,1,12,1.0,0.0,M,0.0,M,,*60
$GPGSA,A,3,01,02,03,04,05,06,07,08,09,10,11,12,1.0,1.0,1.0*30
$GPRMC,140120.781,A,4050.386,N,01417.933,E,038.9,303.9,260723,000.0,W*7D
$GPGGA,140121.781,4050.393,N,01417.922,E,1,12,1.0,0.0,M,0.0,M,,*65
$GPGSA,A,3,01,02,03,04,05,06,07,08,09,10,11,12,1.0,1.0,1.0*30
$GPRMC,140121.781,A,4050.393,N,01417.922,E,038.9,303.9,260723,000.0,W*78
$GPGGA,140122.781,4050.401,N,01417.912,E,1,12,1.0,0.0,M,0.0,M,,*69
$GPGSA,A,3,01,02,03,04,05,06,07,08,09,10,11,12,1.0,1.0,1.0*30
$GPRMC,140122.781,A,4050.401,N,01417.912,E,038.9,303.9,260723,000.0,W*74
$GPGGA,140123.781,4050.408,N,01417.901,E,1,12,1.0,0.0,M,0.0,M,,*63
$GPGSA,A,3,01,02,03,04,05,06,07,08,09,10,11,12,1.0,1.0,1.0*30
$GPRMC,140123.781,A,4050.408,N,01417.901,E,038.9,303.9,260723,000.0,W*7E
$GPGGA,140124.781,4050.415,N,01417.890,E,1,12,1.0,0.0,M,0.0,M,,*61
$GPGSA,A,3,01,02,03,04,05,06,07,08,09,10,11,12,1.0,1.0,1.0*30
$GPRMC,140124.781,A,4050.415,N,01417.890,E,038.9,303.9,260723,000.0,W*7C
$GPGGA,140125.781,4050.422,N,01417.880,E,1,12,1.0,0.0,M,0.0,M,,*65
$GPGSA,A,3,01,02,03,04,05,06,07,08,09,10,11,12,1.0,1.0,1.0*30
$GPRMC,140125.781,A,4050.422,N,01417.880,E,038.9,303.9,260723,000.0,W*78
$GPGGA,140126.781,4050.429,N,01417.869,E,1,12,1.0,0.0,M,0.0,M,,*6A
$GPGSA,A,3,01,02,03,04,05,06,07,08,09,10,11,12,1.0,1.0,1.0*30
$GPRMC,140126.781,A,4050.429,N,01417.869,E,038.9,303.9,260723,000.0,W*77
$GPGGA,140127.781,4050.436,N,01417.858,E,1,12,1.0,0.0,M,0.0,M,,*67
$GPGSA,A,3,01,02,03,04,05,06,07,08,09,10,11,12,1.0,1.0,1.0*30
$GPRMC,140127.781,A,4050.436,N,01417.858,E,038.9,303.9,260723,000.0,W*7A
$GPGGA,140128.781,4050.444,N,01417.848,E,1,12,1.0,0.0,M,0.0,M,,*6C
$GPGSA,A,3,01,02,03,04,05,06,07,08,09,10,11,12,1.0,1.0,1.0*30
$GPRMC,140128.781,A,4050.444,N,01417.848,E,038.9,303.9,260723,000.0,W*71
$GPGGA,140129.781,4050.451,N,01417.837,E,1,12,1.0,0.0,M,0.0,M,,*61
$GPGSA,A,3,01,02,03,04,05,06,07,08,09,10,11,12,1.0,1.0,1.0*30
$GPRMC,140129.781,A,4050.451,N,01417.837,E,038.9,303.9,260723,000.0,W*7C
$GPGGA,140130.781,4050.458,N,01417.826,E,1,12,1.0,0.0,M,0.0,M,,*60
$GPGSA,A,3,01,02,03,04,05,06,07,08,09,10,11,12,1.0,1.0,1.0*30
$GPRMC,140130.781,A,4050.458,N,01417.826,E,038.9,303.9,260723,000.0,W*7D
$GPGGA,140131.781,4050.465,N,01417.816,E,1,12,1.0,0.0,M,0.0,M,,*6C
$GPGSA,A,3,01,02,03,04,05,06,07,08,09,10,11,12,1.0,1.0,1.0*30
$GPRMC,140131.781,A,4050.465,N,01417.816,E,038.9,303.9,260723,000.0,W*71
$GPGGA,140132.781,4050.472,N,01417.805,E,1,12,1.0,0.0,M,0.0,M,,*6B
$GPGSA,A,3,01,02,03,04,05,06,07,08,09,10,11,12,1.0,1.0,1.0*30
$GPRMC,140132.781,A,4050.472,N,01417.805,E,038.9,303.9,260723,000.0,W*76
$GPGGA,140133.781,4050.479,N,01417.794,E,1,12,1.0,0.0,M,0.0,M,,*66
$GPGSA,A,3,01,02,03,04,05,06,07,08,09,10,11,12,1.0,1.0,1.0*30
$GPRMC,140133.781,A,4050.479,N,01417.794,E,038.9,303.9,260723,000.0,W*7B
$GPGGA,140134.781,4050.486,N,01417.784,E,1,12,1.0,0.0,M,0.0,M,,*60
$GPGSA,A,3,01,02,03,04,05,06,07,08,09,10,11,12,1.0,1.0,1.0*30
$GPRMC,140134.781,A,4050.486,N,01417.784,E,038.9,303.9,260723,000.0,W*7D
$GPGGA,140135.781,4050.494,N,01417.773,E,1,12,1.0,0.0,M,0.0,M,,*6A
$GPGSA,A,3,01,02,03,04,05,06,07,08,09,10,11,12,1.0,1.0,1.0*30
$GPRMC,140135.781,A,4050.494,N,01417.773,E,038.9,303.9,260723,000.0,W*77
$GPGGA,140136.781,4050.501,N,01417.762,E,1,12,1.0,0.0,M,0.0,M,,*64
$GPGSA,A,3,01,02,03,04,05,06,07,08,09,10,11,12,1.0,1.0,1.0*30
$GPRMC,140136.781,A,4050.501,N,01417.762,E,038.9,303.9,260723,000.0,W*79
$GPGGA,140137.781,4050.508,N,01417.752,E,1,12,1.0,0.0,M,0.0,M,,*6F
$GPGSA,A,3,01,02,03,04,05,06,07,08,09,10,11,12,1.0,1.0,1.0*30
$GPRMC,140137.781,A,4050.508,N,01417.752,E,038.9,303.9,260723,000.0,W*72
$GPGGA,140138.781,4050.515,N,01417.741,E,1,12,1.0,0.0,M,0.0,M,,*6E
$GPGSA,A,3,01,02,03,04,05,06,07,08,09,10,11,12,1.0,1.0,1.0*30
$GPRMC,140138.781,A,4050.515,N,01417.741,E,038.9,303.9,260723,000.0,W*73
$GPGGA,140139.781,4050.522,N,01417.730,E,1,12,1.0,0.0,M,0.0,M,,*6D
$GPGSA,A,3,01,02,03,04,05,06,07,08,09,10,11,12,1.0,1.0,1.0*30
$GPRMC,140139.781,A,4050.522,N,01417.730,E,038.9,303.9,260723,000.0,W*70
$GPGGA,140140.781,4050.529,N,01417.719,E,1,12,1.0,0.0,M,0.0,M,,*63
$GPGSA,A,3,01,02,03,04,05,06,07,08,09,10,11,12,1.0,1.0,1.0*30
$GPRMC,140140.781,A,4050.529,N,01417.719,E,038.9,303.9,260723,000.0,W*7E
$GPGGA,140141.781,4050.537,N,01417.709,E,1,12,1.0,0.0,M,0.0,M,,*6C
$GPGSA,A,3,01,02,03,04,05,06,07,08,09,10,11,12,1.0,1.0,1.0*30
$GPRMC,140141.781,A,4050.537,N,01417.709,E,038.9,303.9,260723,000.0,W*71
$GPGGA,140142.781,4050.544,N,01417.698,E,1,12,1.0,0.0,M,0.0,M,,*62
$GPGSA,A,3,01,02,03,04,05,06,07,08,09,10,11,12,1.0,1.0,1.0*30
$GPRMC,140142.781,A,4050.544,N,01417.698,E,038.9,303.9,260723,000.0,W*7F
$GPGGA,140143.781,4050.551,N,01417.687,E,1,12,1.0,0.0,M,0.0,M,,*69
$GPGSA,A,3,01,02,03,04,05,06,07,08,09,10,11,12,1.0,1.0,1.0*30
$GPRMC,140143.781,A,4050.551,N,01417.687,E,038.9,303.9,260723,000.0,W*74
$GPGGA,140144.781,4050.558,N,01417.677,E,1,12,1.0,0.0,M,0.0,M,,*68
$GPGSA,A,3,01,02,03,04,05,06,07,08,09,10,11,12,1.0,1.0,1.0*30
$GPRMC,140144.781,A,4050.558,N,01417.677,E,038.9,303.9,260723,000.0,W*75
$GPGGA,140145.781,4050.565,N,01417.666,E,1,12,1.0,0.0,M,0.0,M,,*67
$GPGSA,A,3,01,02,03,04,05,06,07,08,09,10,11,12,1.0,1.0,1.0*30
$GPRMC,140145.781,A,4050.565,N,01417.666,E,038.9,303.9,260723,000.0,W*7A
$GPGGA,140146.781,4050.572,N,01417.655,E,1,12,1.0,0.0,M,0.0,M,,*62
$GPGSA,A,3,01,02,03,04,05,06,07,08,09,10,11,12,1.0,1.0,1.0*30
$GPRMC,140146.781,A,4050.572,N,01417.655,E,038.9,303.9,260723,000.0,W*7F
$GPGGA,140147.781,4050.579,N,01417.645,E,1,12,1.0,0.0,M,0.0,M,,*69
$GPGSA,A,3,01,02,03,04,05,06,07,08,09,10,11,12,1.0,1.0,1.0*30
$GPRMC,140147.781,A,4050.579,N,01417.645,E,038.9,303.9,260723,000.0,W*74
$GPGGA,140148.781,4050.587,N,01417.634,E,1,12,1.0,0.0,M,0.0,M,,*61
$GPGSA,A,3,01,02,03,04,05,06,07,08,09,10,11,12,1.0,1.0,1.0*30
$GPRMC,140148.781,A,4050.587,N,01417.634,E,038.9,303.9,260723,000.0,W*7C
$GPGGA,140149.781,4050.594,N,01417.623,E,1,12,1.0,0.0,M,0.0,M,,*64
$GPGSA,A,3,01,02,03,04,05,06,07,08,09,10,11,12,1.0,1.0,1.0*30
$GPRMC,140149.781,A,4050.594,N,01417.623,E,038.9,303.9,260723,000.0,W*79
$GPGGA,140150.781,4050.601,N,01417.613,E,1,12,1.0,0.0,M,0.0,M,,*60
$GPGSA,A,3,01,02,03,04,05,06,07,08,09,10,11,12,1.0,1.0,1.0*30
$GPRMC,140150.781,A,4050.601,N,01417.613,E,038.9,303.9,260723,000.0,W*7D
$GPGGA,140151.781,4050.608,N,01417.602,E,1,12,1.0,0.0,M,0.0,M,,*68
$GPGSA,A,3,01,02,03,04,05,06,07,08,09,10,11,12,1.0,1.0,1.0*30
$GPRMC,140151.781,A,4050.608,N,01417.602,E,038.9,303.9,260723,000.0,W*75
$GPGGA,140152.781,4050.615,N,01417.591,E,1,12,1.0,0.0,M,0.0,M,,*6E
$GPGSA,A,3,01,02,03,04,05,06,07,08,09,10,11,12,1.0,1.0,1.0*30
$GPRMC,140152.781,A,4050.615,N,01417.591,E,038.9,303.9,260723,000.0,W*73
$GPGGA,140153.781,4050.622,N,01417.581,E,1,12,1.0,0.0,M,0.0,M,,*6A
$GPGSA,A,3,01,02,03,04,05,06,07,08,09,10,11,12,1.0,1.0,1.0*30
$GPRMC,140153.781,A,4050.622,N,01417.581,E,038.9,303.9,260723,000.0,W*77
$GPGGA,140154.781,4050.630,N,01417.570,E,1,12,1.0,0.0,M,0.0,M,,*60
$GPGSA,A,3,01,02,03,04,05,06,07,08,09,10,11,12,1.0,1.0,1.0*30
$GPRMC,140154.781,A,4050.630,N,01417.570,E,038.9,303.9,260723,000.0,W*7D
$GPGGA,140155.781,4050.637,N,01417.559,E,1,12,1.0,0.0,M,0.0,M,,*6D
$GPGSA,A,3,01,02,03,04,05,06,07,08,09,10,11,12,1.0,1.0,1.0*30
$GPRMC,140155.781,A,4050.637,N,01417.559,E,038.9,303.9,260723,000.0,W*70
$GPGGA,140156.781,4050.644,N,01417.549,E,1,12,1.0,0.0,M,0.0,M,,*6B
$GPGSA,A,3,01,02,03,04,05,06,07,08,09,10,11,12,1.0,1.0,1.0*30
$GPRMC,140156.781,A,4050.644,N,01417.549,E,038.9,303.9,260723,000.0,W*76
$GPGGA,140157.781,4050.651,N,01417.538,E,1,12,1.0,0.0,M,0.0,M,,*68
$GPGSA,A,3,01,02,03,04,05,06,07,08,09,10,11,12,1.0,1.0,1.0*30
$GPRMC,140157.781,A,4050.651,N,01417.538,E,038.9,303.9,260723,000.0,W*75
$GPGGA,140158.781,4050.658,N,01417.527,E,1,12,1.0,0.0,M,0.0,M,,*60
$GPGSA,A,3,01,02,03,04,05,06,07,08,09,10,11,12,1.0,1.0,1.0*30
$GPRMC,140158.781,A,4050.658,N,01417.527,E,038.9,303.9,260723,000.0,W*7D
$GPGGA,140159.781,4050.665,N,01417.517,E,1,12,1.0,0.0,M,0.0,M,,*6C
$GPGSA,A,3,01,02,03,04,05,06,07,08,09,10,11,12,1.0,1.0,1.0*30
$GPRMC,140159.781,A,4050.665,N,01417.517,E,038.9,303.9,260723,000.0,W*71
$GPGGA,140200.781,4050.672,N,01417.506,E,1,12,1.0,0.0,M,0.0,M,,*65
$GPGSA,A,3,01,02,03,04,05,06,07,08,09,10,11,12,1.0,1.0,1.0*30
$GPRMC,140200.781,A,4050.672,N,01417.506,E,038.9,303.9,260723,000.0,W*78
$GPGGA,140201.781,4050.680,N,01417.495,E,1,12,1.0,0.0,M,0.0,M,,*62
$GPGSA,A,3,01,02,03,04,05,06,07,08,09,10,11,12,1.0,1.0,1.0*30
$GPRMC,140201.781,A,4050.680,N,01417.495,E,038.9,303.9,260723,000.0,W*7F
$GPGGA,140202.781,4050.687,N,01417.484,E,1,12,1.0,0.0,M,0.0,M,,*66
$GPGSA,A,3,01,02,03,04,05,06,07,08,09,10,11,12,1.0,1.0,1.0*30
$GPRMC,140202.781,A,4050.687,N,01417.484,E,038.9,303.9,260723,000.0,W*7B
$GPGGA,140203.781,4050.694,N,01417.474,E,1,12,1.0,0.0,M,0.0,M,,*6A
$GPGSA,A,3,01,02,03,04,05,06,07,08,09,10,11,12,1.0,1.0,1.0*30
$GPRMC,140203.781,A,4050.694,N,01417.474,E,038.9,303.9,260723,000.0,W*77
$GPGGA,140204.781,4050.701,N,01417.463,E,1,12,1.0,0.0,M,0.0,M,,*66
$GPGSA,A,3,01,02,03,04,05,06,07,08,09,10,11,12,1.0,1.0,1.0*30
$GPRMC,140204.781,A,4050.701,N,01417.463,E,038.9,303.9,260723,000.0,W*7B
$GPGGA,140205.781,4050.708,N,01417.452,E,1,12,1.0,0.0,M,0.0,M,,*6C
$GPGSA,A,3,01,02,03,04,05,06,07,08,09,10,11,12,1.0,1.0,1.0*30
$GPRMC,140205.781,A,4050.708,N,01417.452,E,038.9,303.9,260723,000.0,W*71
$GPGGA,140206.781,4050.715,N,01417.442,E,1,12,1.0,0.0,M,0.0,M,,*62
$GPGSA,A,3,01,02,03,04,05,06,07,08,09,10,11,12,1.0,1.0,1.0*30
$GPRMC,140206.781,A,4050.715,N,01417.442,E,038.9,303.9,260723,000.0,W*7F
$GPGGA,140207.781,4050.723,N,01417.431,E,1,12,1.0,0.0,M,0.0,M,,*62
$GPGSA,A,3,01,02,03,04,05,06,07,08,09,10,11,12,1.0,1.0,1.0*30
$GPRMC,140207.781,A,4050.723,N,01417.431,E,038.9,303.9,260723,000.0,W*7F
$GPGGA,140208.781,4050.730,N,01417.420,E,1,12,1.0,0.0,M,0.0,M,,*6F
$GPGSA,A,3,01,02,03,04,05,06,07,08,09,10,11,12,1.0,1.0,1.0*30
$GPRMC,140208.781,A,4050.730,N,01417.420,E,038.9,303.9,260723,000.0,W*72
$GPGGA,140209.781,4050.737,N,01417.410,E,1,12,1.0,0.0,M,0.0,M,,*6A
$GPGSA,A,3,01,02,03,04,05,06,07,08,09,10,11,12,1.0,1.0,1.0*30
$GPRMC,140209.781,A,4050.737,N,01417.410,E,038.9,303.9,260723,000.0,W*77
$GPGGA,140210.781,4050.744,N,01417.399,E,1,12,1.0,0.0,M,0.0,M,,*60
$GPGSA,A,3,01,02,03,04,05,06,07,08,09,10,11,12,1.0,1.0,1.0*30
$GPRMC,140210.781,A,4050.744,N,01417.399,E,038.9,303.9,260723,000.0,W*7D
$GPGGA,140211.781,4050.751,N,01417.388,E,1,12,1.0,0.0,M,0.0,M,,*65
$GPGSA,A,3,01,02,03,04,05,06,07,08,09,10,11,12,1.0,1.0,1.0*30
$GPRMC,140211.781,A,4050.751,N,01417.388,E,038.9,303.9,260723,000.0,W*78
$GPGGA,140212.781,4050.758,N,01417.378,E,1,12,1.0,0.0,M,0.0,M,,*60
$GPGSA,A,3,01,02,03,04,05,06,07,08,09,10,11,12,1.0,1.0,1.0*30
$GPRMC,140212.781,A,4050.758,N,01417.378,E,038.9,303.9,260723,000.0,W*7D
$GPGGA,140213.781,4050.765,N,01417.367,E,1,12,1.0,0.0,M,0.0,M,,*61
$GPGSA,A,3,01,02,03,04,05,06,07,08,09,10,11,12,1.0,1.0,1.0*30
$GPRMC,140213.781,A,4050.765,N,01417.367,E,038.9,303.9,260723,000.0,W*7C
$GPGGA,140214.781,4050.773,N,01417.356,E,1,12,1.0,0.0,M,0.0,M,,*63
$GPGSA,A,3,01,02,03,04,05,06,07,08,09,10,11,12,1.0,1.0,1.0*30
$GPRMC,140214.781,A,4050.773,N,01417.356,E,038.9,303.9,260723,000.0,W*7E
$GPGGA,140215.781,4050.780,N,01417.346,E,1,12,1.0,0.0,M,0.0,M,,*6F
$GPGSA,A,3,01,02,03,04,05,06,07,08,09,10,11,12,1.0,1.0,1.0*30
$GPRMC,140215.781,A,4050.780,N,01417.346,E,038.9,303.9,260723,000.0,W*72
$GPGGA,140216.781,4050.787,N,01417.335,E,1,12,1.0,0.0,M,0.0,M,,*6F
$GPGSA,A,3,01,02,03,04,05,06,07,08,09,10,11,12,1.0,1.0,1.0*30
$GPRMC,140216.781,A,4050.787,N,01417.335,E,038.9,303.9,260723,000.0,W*72
$GPGGA,140217.781,4050.794,N,01417.324,E,1,12,1.0,0.0,M,0.0,M,,*6C
$GPGSA,A,3,01,02,03,04,05,06,07,08,09,10,11,12,1.0,1.0,1.0*30
$GPRMC,140217.781,A,4050.794,N,01417.324,E,038.9,303.9,260723,000.0,W*71
$GPGGA,140218.781,4050.801,N,01417.314,E,1,12,1.0,0.0,M,0.0,M,,*63
$GPGSA,A,3,01,02,03,04,05,06,07,08,09,10,11,12,1.0,1.0,1.0*30
$GPRMC,140218.781,A,4050.801,N,01417.314,E,038.9,303.9,260723,000.0,W*7E
$GPGGA,140219.781,4050.808,N,01417.303,E,1,12,1.0,0.0,M,0.0,M,,*6D
$GPGSA,A,3,01,02,03,04,05,06,07,08,09,10,11,12,1.0,1.0,1.0*30
$GPRMC,140219.781,A,4050.808,N,01417.303,E,038.9,303.9,260723,000.0,W*70
$GPGGA,140220.781,4050.816,N,01417.292,E,1,12,1.0,0.0,M,0.0,M,,*61
$GPGSA,A,3,01,02,03,04,05,06,07,08,09,10,11,12,1.0,1.0,1.0*30
$GPRMC,140220.781,A,4050.816,N,01417.292,E,038.9,303.9,260723,000.0,W*7C
$GPGGA,140221.781,4050.823,N,01417.282,E,1,12,1.0,0.0,M,0.0,M,,*67
$GPGSA,A,3,01,02,03,04,05,06,07,08,09,10,11,12,1.0,1.0,1.0*30
$GPRMC,140221.781,A,4050.823,N,01417.282,E,038.9,303.9,260723,000.0,W*7A
$GPGGA,140222.781,4050.830,N,01417.271,E,1,12,1.0,0.0,M,0.0,M,,*6A
$GPGSA,A,3,01,02,03,04,05,06,07,08,09,10,11,12,1.0,1.0,1.0*30
$GPRMC,140222.781,A,4050.830,N,01417.271,E,038.9,303.9,260723,000.0,W*77
$GPGGA,140223.781,4050.837,N,01417.260,E,1,12,1.0,0.0,M,0.0,M,,*6C
$GPGSA,A,3,01,02,03,04,05,06,07,08,09,10,11,12,1.0,1.0,1.0*30
$GPRMC,140223.781,A,4050.837,N,01417.260,E,038.9,303.9,260723,000.0,W*71
$GPGGA,140224.781,4050.844,N,01417.250,E,1,12,1.0,0.0,M,0.0,M,,*6C
$GPGSA,A,3,01,02,03,04,05,06,07,08,09,10,11,12,1.0,1.0,1.0*30
$GPRMC,140224.781,A,4050.844,N,01417.250,E,038.9,303.9,260723,000.0,W*71
$GPGGA,140225.781,4050.851,N,01417.239,E,1,12,1.0,0.0,M,0.0,M,,*66
$GPGSA,A,3,01,02,03,04,05,06,07,08,09,10,11,12,1.0,1.0,1.0*30
$GPRMC,140225.781,A,4050.851,N,01417.239,E,038.9,303.9,260723,000.0,W*7B
$GPGGA,140226.781,4050.858,N,01417.228,E,1,12,1.0,0.0,M,0.0,M,,*6C
$GPGSA,A,3,01,02,03,04,05,06,07,08,09,10,11,12,1.0,1.0,1.0*30
$GPRMC,140226.781,A,4050.858,N,01417.228,E,038.9,303.9,260723,000.0,W*71
$GPGGA,140227.781,4050.866,N,01417.217,E,1,12,1.0,0.0,M,0.0,M,,*6C
$GPGSA,A,3,01,02,03,04,05,06,07,08,09,10,11,12,1.0,1.0,1.0*30
$GPRMC,140227.781,A,4050.866,N,01417.217,E,038.9,303.9,260723,000.0,W*71
$GPGGA,140228.781,4050.873,N,01417.207,E,1,12,1.0,0.0,M,0.0,M,,*66
$GPGSA,A,3,01,02,03,04,05,06,07,08,09,10,11,12,1.0,1.0,1.0*30
$GPRMC,140228.781,A,4050.873,N,01417.207,E,038.9,303.9,260723,000.0,W*7B
$GPGGA,140229.781,4050.880,N,01417.196,E,1,12,1.0,0.0,M,0.0,M,,*60
$GPGSA,A,3,01,02,03,04,05,06,07,08,09,10,11,12,1.0,1.0,1.0*30
$GPRMC,140229.781,A,4050.880,N,01417.196,E,038.9,303.9,260723,000.0,W*7D
$GPGGA,140230.781,4050.887,N,01417.185,E,1,12,1.0,0.0,M,0.0,M,,*6D
$GPGSA,A,3,01,02,03,04,05,06,07,08,09,10,11,12,1.0,1.0,1.0*30
$GPRMC,140230.781,A,4050.887,N,01417.185,E,038.9,303.9,260723,000.0,W*70
$GPGGA,140231.781,4050.894,N,01417.175,E,1,12,1.0,0.0,M,0.0,M,,*61
$GPGSA,A,3,01,02,03,04,05,06,07,08,09,10,11,12,1.0,1.0,1.0*30
$GPRMC,140231.781,A,4050.894,N,01417.175,E,038.9,303.9,260723,000.0,W*7C
$GPGGA,140232.781,4050.901,N,01417.164,E,1,12,1.0,0.0,M,0.0,M,,*6F
$GPGSA,A,3,01,02,03,04,05,06,07,08,09,10,11,12,1.0,1.0,1.0*30
$GPRMC,140232.781,A,4050.901,N,01417.164,E,038.9,303.9,260723,000.0,W*72
$GPGGA,140233.781,4050.909,N,01417.153,E,1,12,1.0,0.0,M,0.0,M,,*62
$GPGSA,A,3,01,02,03,04,05,06,07,08,09,10,11,12,1.0,1.0,1.0*30
$GPRMC,140233.781,A,4050.909,N,01417.153,E,038.9,303.9,260723,000.0,W*7F
$GPGGA,140234.781,4050.916,N,01417.143,E,1,12,1.0,0.0,M,0.0,M,,*6A
$GPGSA,A,3,01,02,03,04,05,06,07,08,09,10,11,12,1.0,1.0,1.0*30
$GPRMC,140234.781,A,4050.916,N,01417.143,E,038.9,303.9,260723,000.0,W*77
$GPGGA,140235.781,4050.923,N,01417.132,E,1,12,1.0,0.0,M,0.0,M,,*6B
$GPGSA,A,3,01,02,03,04,05,06,07,08,09,10,11,12,1.0,1.0,1.0*30
$GPRMC,140235.781,A,4050.923,N,01417.132,E,038.9,303.9,260723,000.0,W*76
$GPGGA,140236.781,4050.930,N,01417.121,E,1,12,1.0,0.0,M,0.0,M,,*68
$GPGSA,A,3,01,02,03,04,05,06,07,08,09,10,11,12,1.0,1.0,1.0*30
$GPRMC,140236.781,A,4050.930,N,01417.121,E,038.9,303.9,260723,000.0,W*75
$GPGGA,140237.781,4050.937,N,01417.111,E,1,12,1.0,0.0,M,0.0,M,,*6D
$GPGSA,A,3,01,02,03,04,05,06,07,08,09,10,11,12,1.0,1.0,1.0*30
$GPRMC,140237.781,A,4050.937,N,01417.111,E,038.9,303.9,260723,000.0,W*70
$GPGGA,140238.781,4050.944,N,01417.100,E,1,12,1.0,0.0,M,0.0,M,,*66
$GPGSA,A,3,01,02,03,04,05,06,07,08,09,10,11,12,1.0,1.0,1.0*30
$GPRMC,140238.781,A,4050.944,N,01417.100,E,038.9,303.9,260723,000.0,W*7B
$GPGGA,140239.781,4050.951,N,01417.089,E,1,12,1.0,0.0,M,0.0,M,,*63
$GPGSA,A,3,01,02,03,04,05,06,07,08,09,10,11,12,1.0,1.0,1.0*30
$GPRMC,140239.781,A,4050.951,N,01417.089,E,038.9,303.9,260723,000.0,W*7E
$GPGGA,140240.781,4050.959,N,01417.079,E,1,12,1.0,0.0,M,0.0,M,,*6A
$GPGSA,A,3,01,02,03,04,05,06,07,08,09,10,11,12,1.0,1.0,1.0*30
$GPRMC,140240.781,A,4050.959,N,01417.079,E,038.9,303.9,260723,000.0,W*77
$GPGGA,140241.781,4050.966,N,01417.068,E,1,12,1.0,0.0,M,0.0,M,,*67
$GPGSA,A,3,01,02,03,04,05,06,07,08,09,10,11,12,1.0,1.0,1.0*30
$GPRMC,140241.781,A,4050.966,N,01417.068,E,038.9,303.9,260723,000.0,W*7A
$GPGGA,140242.781,4050.973,N,01417.057,E,1,12,1.0,0.0,M,0.0,M,,*6C
$GPGSA,A,3,01,02,03,04,05,06,07,08,09,10,11,12,1.0,1.0,1.0*30
$GPRMC,140242.781,A,4050.973,N,01417.057,E,038.9,303.9,260723,000.0,W*71
$GPGGA,140243.781,4050.980,N,01417.047,E,1,12,1.0,0.0,M,0.0,M,,*60
$GPGSA,A,3,01,02,03,04,05,06,07,08,09,10,11,12,1.0,1.0,1.0*30
$GPRMC,140243.781,A,4050.980,N,01417.047,E,038.9,303.9,260723,000.0,W*7D
$GPGGA,140244.781,4050.987,N,01417.036,E,1,12,1.0,0.0,M,0.0,M,,*66
$GPGSA,A,3,01,02,03,04,05,06,07,08,09,10,11,12,1.0,1.0,1.0*30
$GPRMC,140244.781,A,4050.987,N,01417.036,E,038.9,303.9,260723,000.0,W*7B
$GPGGA,140245.781,4050.994,N,01417.025,E,1,12,1.0,0.0,M,0.0,M,,*67
$GPGSA,A,3,01,02,03,04,05,06,07,08,09,10,11,12,1.0,1.0,1.0*30
$GPRMC,140245.781,A,4050.994,N,01417.025,E,038.9,303.9,260723,000.0,W*7A
$GPGGA,140246.781,4051.002,N,01417.015,E,1,12,1.0,0.0,M,0.0,M,,*60
$GPGSA,A,3,01,02,03,04,05,06,07,08,09,10,11,12,1.0,1.0,1.0*30
$GPRMC,140246.781,A,4051.002,N,01417.015,E,038.9,303.9,260723,000.0,W*7D
$GPGGA,140247.781,4051.009,N,01417.004,E,1,12,1.0,0.0,M,0.0,M,,*6A
$GPGSA,A,3,01,02,03,04,05,06,07,08,09,10,11,12,1.0,1.0,1.0*30
$GPRMC,140247.781,A,4051.009,N,01417.004,E,038.9,303.9,260723,000.0,W*77
$GPGGA,140248.781,4051.016,N,01416.993,E,1,12,1.0,0.0,M,0.0,M,,*6D
$GPGSA,A,3,01,02,03,04,05,06,07,08,09,10,11,12,1.0,1.0,1.0*30
$GPRMC,140248.781,A,4051.016,N,01416.993,E,038.9,303.9,260723,000.0,W*70
$GPGGA,140249.781,4051.023,N,01416.983,E,1,12,1.0,0.0,M,0.0,M,,*6B
$GPGSA,A,3,01,02,03,04,05,06,07,08,09,10,11,12,1.0,1.0,1.0*30
$GPRMC,140249.781,A,4051.023,N,01416.983,E,038.9,303.9,260723,000.0,W*76
$GPGGA,140250.781,4051.030,N,01416.972,E,1,12,1.0,0.0,M,0.0,M,,*6F
$GPGSA,A,3,01,02,03,04,05,06,07,08,09,10,11,12,1.0,1.0,1.0*30
$GPRMC,140250.781,A,4051.030,N,01416.972,E,038.9,303.9,260723,000.0,W*72
$GPGGA,140251.781,4051.037,N,01416.961,E,1,12,1.0,0.0,M,0.0,M,,*6B
$GPGSA,A,3,01,02,03,04,05,06,07,08,09,10,11,12,1.0,1.0,1.0*30
$GPRMC,140251.781,A,4051.037,N,01416.961,E,038.9,303.9,260723,000.0,W*76
$GPGGA,140252.781,4051.044,N,01416.950,E,1,12,1.0,0.0,M,0.0,M,,*6E
$GPGSA,A,3,01,02,03,04,05,06,07,08,09,10,11,12,1.0,1.0,1.0*30
$GPRMC,140252.781,A,4051.044,N,01416.950,E,038.9,303.9,260723,000.0,W*73
$GPGGA,140253.781,4051.052,N,01416.940,E,1,12,1.0,0.0,M,0.0,M,,*69
$GPGSA,A,3,01,02,03,04,05,06,07,08,09,10,11,12,1.0,1.0,1.0*30
$GPRMC,140253.781,A,4051.052,N,01416.940,E,038.9,303.9,260723,000.0,W*74
$GPGGA,140254.781,4051.059,N,01416.929,E,1,12,1.0,0.0,M,0.0,M,,*6A
$GPGSA,A,3,01,02,03,04,05,06,07,08,09,10,11,12,1.0,1.0,1.0*30
$GPRMC,140254.781,A,4051.059,N,01416.929,E,038.9,303.9,260723,000.0,W*77
$GPGGA,140255.781,4051.066,N,01416.918,E,1,12,1.0,0.0,M,0.0,M,,*65
$GPGSA,A,3,01,02,03,04,05,06,07,08,09,10,11,12,1.0,1.0,1.0*30
$GPRMC,140255.781,A,4051.066,N,01416.918,E,038.9,303.9,260723,000.0,W*78
$GPGGA,140256.781,4051.073,N,01416.908,E,1,12,1.0,0.0,M,0.0,M,,*63
$GPGSA,A,3,01,02,03,04,05,06,07,08,09,10,11,12,1.0,1.0,1.0*30
$GPRMC,140256.781,A,4051.073,N,01416.908,E,038.9,303.9,260723,000.0,W*7E
$GPGGA,140257.781,4051.080,N,01416.897,E,1,12,1.0,0.0,M,0.0,M,,*69
$GPGSA,A,3,01,02,03,04,05,06,07,08,09,10,11,12,1.0,1.0,1.0*30
$GPRMC,140257.781,A,4051.080,N,01416.897,E,038.9,303.9,260723,000.0,W*74
$GPGGA,140258.781,4051.087,N,01416.886,E,1,12,1.0,0.0,M,0.0,M,,*61
$GPGSA,A,3,01,02,03,04,05,06,07,08,09,10,11,12,1.0,1.0,1.0*30
$GPRMC,140258.781,A,4051.087,N,01416.886,E,038.9,303.9,260723,000.0,W*7C
$GPGGA,140259.781,4051.095,N,01416.876,E,1,12,1.0,0.0,M,0.0,M,,*6C
$GPGSA,A,3,01,02,03,04,05,06,07,08,09,10,11,12,1.0,1.0,1.0*30
$GPRMC,140259.781,A,4051.095,N,01416.876,E,038.9,303.9,260723,000.0,W*71
$GPGGA,140300.781,4051.102,N,01416.865,E,1,12,1.0,0.0,M,0.0,M,,*6C
$GPGSA,A,3,01,02,03,04,05,06,07,08,09,10,11,12,1.0,1.0,1.0*30
$GPRMC,140300.781,A,4051.102,N,01416.865,E,038.9,267.5,260723,000.0,W*7E
$GPGGA,140301.781,4051.101,N,01416.851,E,1,12,1.0,0.0,M,0.0,M,,*69
$GPGSA,A,3,01,02,03,04,05,06,07,08,09,10,11,12,1.0,1.0,1.0*30
$GPRMC,140301.781,A,4051.101,N,01416.851,E,038.9,267.5,260723,000.0,W*7B
$GPGGA,140302.781,4051.101,N,01416.837,E,1,12,1.0,0.0,M,0.0,M,,*6A
$GPGSA,A,3,01,02,03,04,05,06,07,08,09,10,11,12,1.0,1.0,1.0*30
$GPRMC,140302.781,A,4051.101,N,01416.837,E,038.9,267.5,260723,000.0,W*78
$GPGGA,140303.781,4051.100,N,01416.822,E,1,12,1.0,0.0,M,0.0,M,,*6E
$GPGSA,A,3,01,02,03,04,05,06,07,08,09,10,11,12,1.0,1.0,1.0*30
$GPRMC,140303.781,A,4051.100,N,01416.822,E,038.9,267.5,260723,000.0,W*7C
$GPGGA,140304.781,4051.099,N,01416.808,E,1,12,1.0,0.0,M,0.0,M,,*60
$GPGSA,A,3,01,02,03,04,05,06,07,08,09,10,11,12,1.0,1.0,1.0*30
$GPRMC,140304.781,A,4051.099,N,01416.808,E,038.9,267.5,260723,000.0,W*72
$GPGGA,140305.781,4051.099,N,01416.794,E,1,12,1.0,0.0,M,0.0,M,,*6B
$GPGSA,A,3,01,02,03,04,05,06,07,08,09,10,11,12,1.0,1.0,1.0*30
$GPRMC,140305.781,A,4051.099,N,01416.794,E,038.9,267.5,260723,000.0,W*79
$GPGGA,140306.781,4051.098,N,01416.780,E,1,12,1.0,0.0,M,0.0,M,,*6C
$GPGSA,A,3,01,02,03,04,05,06,07,08,09,10,11,12,1.0,1.0,1.0*30
$GPRMC,140306.781,A,4051.098,N,01416.780,E,038.9,267.5,260723,000.0,W*7E
$GPGGA,140307.781,4051.097,N,01416.765,E,1,12,1.0,0.0,M,0.0,M,,*69
$GPGSA,A,3,01,02,03,04,05,06,07,08,09,10,11,12,1.0,1.0,1.0*30
$GPRMC,140307.781,A,4051.097,N,01416.765,E,038.9,267.5,260723,000.0,W*7B
$GPGGA,140308.781,4051.097,N,01416.751,E,1,12,1.0,0.0,M,0.0,M,,*61
$GPGSA,A,3,01,02,03,04,05,06,07,08,09,10,11,12,1.0,1.0,1.0*30
$GPRMC,140308.781,A,4051.097,N,01416.751,E,038.9,267.5,260723,000.0,W*73
$GPGGA,140309.781,4051.096,N,01416.737,E,1,12,1.0,0.0,M,0.0,M,,*61
$GPGSA,A,3,01,02,03,04,05,06,07,08,09,10,11,12,1.0,1.0,1.0*30
$GPRMC,140309.781,A,4051.096,N,01416.737,E,038.9,267.5,260723,000.0,W*73
$GPGGA,140310.781,4051.096,N,01416.723,E,1,12,1.0,0.0,M,0.0,M,,*6C
$GPGSA,A,3,01,02,03,04,05,06,07,08,09,10,11,12,1.0,1.0,1.0*30
$GPRMC,140310.781,A,4051.096,N,01416.723,E,038.9,267.5,260723,000.0,W*7E
$GPGGA,140311.781,4051.095,N,01416.708,E,1,12,1.0,0.0,M,0.0,M,,*67
$GPGSA,A,3,01,02,03,04,05,06,07,08,09,10,11,12,1.0,1.0,1.0*30
$GPRMC,140311.781,A,4051.095,N,01416.708,E,038.9,267.5,260723,000.0,W*75
$GPGGA,140312.781,4051.094,N,01416.694,E,1,12,1.0,0.0,M,0.0,M,,*61
$GPGSA,A,3,01,02,03,04,05,06,07,08,09,10,11,12,1.0,1.0,1.0*30
$GPRMC,140312.781,A,4051.094,N,01416.694,E,038.9,267.5,260723,000.0,W*73
$GPGGA,140313.781,4051.094,N,01416.680,E,1,12,1.0,0.0,M,0.0,M,,*65
$GPGSA,A,3,01,02,03,04,05,06,07,08,09,10,11,12,1.0,1.0,1.0*30
$GPRMC,140313.781,A,4051.094,N,01416.680,E,038.9,267.5,260723,000.0,W*77
$GPGGA,140314.781,4051.093,N,01416.666,E,1,12,1.0,0.0,M,0.0,M,,*6D
$GPGSA,A,3,01,02,03,04,05,06,07,08,09,10,11,12,1.0,1.0,1.0*30
$GPRMC,140314.781,A,4051.093,N,01416.666,E,038.9,267.5,260723,000.0,W*7F
$GPGGA,140315.781,4051.093,N,01416.651,E,1,12,1.0,0.0,M,0.0,M,,*68
$GPGSA,A,3,01,02,03,04,05,06,07,08,09,10,11,12,1.0,1.0,1.0*30
$GPRMC,140315.781,A,4051.093,N,01416.651,E,038.9,267.5,260723,000.0,W*7A
$GPGGA,140316.781,4051.092,N,01416.637,E,1,12,1.0,0.0,M,0.0,M,,*6A
$GPGSA,A,3,01,02,03,04,05,06,07,08,09,10,11,12,1.0,1.0,1.0*30
$GPRMC,140316.781,A,4051.092,N,01416.637,E,038.9,267.5,260723,000.0,W*78
$GPGGA,140317.781,4051.091,N,01416.623,E,1,12,1.0,0.0,M,0.0,M,,*6D
$GPGSA,A,3,01,02,03,04,05,06,07,08,09,10,11,12,1.0,1.0,1.0*30
$GPRMC,140317.781,A,4051.091,N,01416.623,E,038.9,267.5,260723,000.0,W*7F
$GPGGA,140318.781,4051.091,N,01416.609,E,1,12,1.0,0.0,M,0.0,M,,*6A
$GPGSA,A,3,01,02,03,04,05,06,07,08,09,10,11,12,1.0,1.0,1.0*30
$GPRMC,140318.781,A,4051.091,N,01416.609,E,038.9,267.5,260723,000.0,W*78
$GPGGA,140319.781,4051.090,N,01416.594,E,1,12,1.0,0.0,M,0.0,M,,*6D
$GPGSA,A,3,01,02,03,04,05,06,07,08,09,10,11,12,1.0,1.0,1.0*30
$GPRMC,140319.781,A,4051.090,N,01416.594,E,038.9,267.5,260723,000.0,W*7F
$GPGGA,140320.781,4051.090,N,01416.580,E,1,12,1.0,0.0,M,0.0,M,,*62
$GPGSA,A,3,01,02,03,04,05,06,07,08,09,10,11,12,1.0,1.0,1.0*30
$GPRMC,140320.781,A,4051.090,N,01416.580,E,038.9,267.5,260723,000.0,W*70
$GPGGA,140321.781,4051.089,N,01416.566,E,1,12,1.0,0.0,M,0.0,M,,*63
$GPGSA,A,3,01,02,03,04,05,06,07,08,09,10,11,12,1.0,1.0,1.0*30
$GPRMC,140321.781,A,4051.089,N,01416.566,E,038.9,267.5,260723,000.0,W*71
$GPGGA,140322.781,4051.088,N,01416.552,E,1,12,1.0,0.0,M,0.0,M,,*66
$GPGSA,A,3,01,02,03,04,05,06,07,08,09,10,11,12,1.0,1.0,1.0*30
$GPRMC,140322.781,A,4051.088,N,01416.552,E,038.9,267.5,260723,000.0,W*74
$GPGGA,140323.781,4051.088,N,01416.537,E,1,12,1.0,0.0,M,0.0,M,,*64
$GPGSA,A,3,01,02,03,04,05,06,07,08,09,10,11,12,1.0,1.0,1.0*30
$GPRMC,140323.781,A,4051.088,N,01416.537,E,038.9,267.5,260723,000.0,W*76
$GPGGA,140324.781,4051.087,N,01416.523,E,1,12,1.0,0.0,M,0.0,M,,*69
$GPGSA,A,3,01,02,03,04,05,06,07,08,09,10,11,12,1.0,1.0,1.0*30
$GPRMC,140324.781,A,4051.087,N,01416.523,E,038.9,267.5,260723,000.0,W*7B
$GPGGA,140325.781,4051.086,N,01416.509,E,1,12,1.0,0.0,M,0.0,M,,*61
$GPGSA,A,3,01,02,03,04,05,06,07,08,09,10,11,12,1.0,1.0,1.0*30
$GPRMC,140325.781,A,4051.086,N,01416.509,E,038.9,267.5,260723,000.0,W*73
$GPGGA,140326.781,4051.086,N,01416.495,E,1,12,1.0,0.0,M,0.0,M,,*66
$GPGSA,A,3,01,02,03,04,05,06,07,08,09,10,11,12,1.0,1.0,1.0*30
$GPRMC,140326.781,A,4051.086,N,01416.495,E,038.9,267.5,260723,000.0,W*74
$GPGGA,140327.781,4051.085,N,01416.480,E,1,12,1.0,0.0,M,0.0,M,,*60
$GPGSA,A,3,01,02,03,04,05,06,07,08,09,10,11,12,1.0,1.0,1.0*30
$GPRMC,140327.781,A,4051.085,N,01416.480,E,038.9,267.5,260723,000.0,W*72
$GPGGA,140328.781,4051.085,N,01416.466,E,1,12,1.0,0.0,M,0.0,M,,*67
$GPGSA,A,3,01,02,03,04,05,06,07,08,09,10,11,12,1.0,1.0,1.0*30
$GPRMC,140328.781,A,4051.085,N,01416.466,E,038.9,267.5,260723,000.0,W*75
$GPGGA,140329.781,4051.084,N,01416.452,E,1,12,1.0,0.0,M,0.0,M,,*60
$GPGSA,A,3,01,02,03,04,05,06,07,08,09,10,11,12,1.0,1.0,1.0*30
$GPRMC,140329.781,A,4051.084,N,01416.452,E,038.9,267.5,260723,000.0,W*72
$GPGGA,140330.781,4051.083,N,01416.438,E,1,12,1.0,0.0,M,0.0,M,,*63
$GPGSA,A,3,01,02,03,04,05,06,07,08,09,10,11,12,1.0,1.0,1.0*30
$GPRMC,140330.781,A,4051.083,N,01416.438,E,038.9,267.5,260723,000.0,W*71
$GPGGA,140331.781,4051.083,N,01416.423,E,1,12,1.0,0.0,M,0.0,M,,*68
$GPGSA,A,3,01,02,03,04,05,06,07,08,09,10,11,12,1.0,1.0,1.0*30
$GPRMC,140331.781,A,4051.083,N,01416.423,E,038.9,267.5,260723,000.0,W*7A
$GPGGA,140332.781,4051.082,N,01416.409,E,1,12,1.0,0.0,M,0.0,M,,*62
$GPGSA,A,3,01,02,03,04,05,06,07,08,09,10,11,12,1.0,1.0,1.0*30
$GPRMC,140332.781,A,4051.082,N,01416.409,E,038.9,267.5,260723,000.0,W*70
$GPGGA,140333.781,4051.082,N,01416.395,E,1,12,1.0,0.0,M,0.0,M,,*61
$GPGSA,A,3,01,02,03,04,05,06,07,08,09,10,11,12,1.0,1.0,1.0*30
$GPRMC,140333.781,A,4051.082,N,01416.395,E,038.9,267.5,260723,000.0,W*73
$GPGGA,140334.781,4051.081,N,01416.381,E,1,12,1.0,0.0,M,0.0,M,,*60
$GPGSA,A,3,01,02,03,04,05,06,07,08,09,10,11,12,1.0,1.0,1.0*30
$GPRMC,140334.781,A,4051.081,N,01416.381,E,038.9,267.5,260723,000.0,W*72
$GPGGA,140335.781,4051.080,N,01416.366,E,1,12,1.0,0.0,M,0.0,M,,*69
$GPGSA,A,3,01,02,03,04,05,06,07,08,09,10,11,12,1.0,1.0,1.0*30
$GPRMC,140335.781,A,4051.080,N,01416.366,E,038.9,267.5,260723,000.0,W*7B
$GPGGA,140336.781,4051.080,N,01416.352,E,1,12,1.0,0.0,M,0.0,M,,*6D
$GPGSA,A,3,01,02,03,04,05,06,07,08,09,10,11,12,1.0,1.0,1.0*30
$GPRMC,140336.781,A,4051.080,N,01416.352,E,038.9,267.5,260723,000.0,W*7F
$GPGGA,140337.781,4051.079,N,01416.338,E,1,12,1.0,0.0,M,0.0,M,,*66
$GPGSA,A,3,01,02,03,04,05,06,07,08,09,10,11,12,1.0,1.0,1.0*30
$GPRMC,140337.781,A,4051.079,N,01416.338,E,038.9,267.5,260723,000.0,W*74
$GPGGA,140338.781,4051.079,N,01416.324,E,1,12,1.0,0.0,M,0.0,M,,*64
$GPGSA,A,3,01,02,03,04,05,06,07,08,09,10,11,12,1.0,1.0,1.0*30
$GPRMC,140338.781,A,4051.079,N,01416.324,E,038.9,267.5,260723,000.0,W*76
$GPGGA,140339.781,4051.078,N,01416.310,E,1,12,1.0,0.0,M,0.0,M,,*63
$GPGSA,A,3,01,02,03,04,05,06,07,08,09,10,11,12,1.0,1.0,1.0*30
$GPRMC,140339.781,A,4051.078,N,01416.310,E,038.9,267.5,260723,000.0,W*71
$GPGGA,140340.781,4051.077,N,01416.295,E,1,12,1.0,0.0,M,0.0,M,,*6E
$GPGSA,A,3,01,02,03,04,05,06,07,08,09,10,11,12,1.0,1.0,1.0*30
$GPRMC,140340.781,A,4051.077,N,01416.295,E,038.9,267.5,260723,000.0,W*7C
$GPGGA,140341.781,4051.077,N,01416.281,E,1,12,1.0,0.0,M,0.0,M,,*6A
$GPGSA,A,3,01,02,03,04,05,06,07,08,09,10,11,12,1.0,1.0,1.0*30
$GPRMC,140341.781,A,4051.077,N,01416.281,E,038.9,267.5,260723,000.0,W*78
$GPGGA,140342.781,4051.076,N,01416.267,E,1,12,1.0,0.0,M,0.0,M,,*60
$GPGSA,A,3,01,02,03,04,05,06,07,08,09,10,11,12,1.0,1.0,1.0*30
$GPRMC,140342.781,A,4051.076,N,01416.267,E,038.9,267.5,260723,000.0,W*72
$GPGGA,140343.781,4051.075,N,01416.253,E,1,12,1.0,0.0,M,0.0,M,,*65
$GPGSA,A,3,01,02,03,04,05,06,07,08,09,10,11,12,1.0,1.0,1.0*30
$GPRMC,140343.781,A,4051.075,N,01416.253,E,038.9,267.5,260723,000.0,W*77
$GPGGA,140344.781,4051.075,N,01416.238,E,1,12,1.0,0.0,M,0.0,M,,*6F
$GPGSA,A,3,01,02,03,04,05,06,07,08,09,10,11,12,1.0,1.0,1.0*30
$GPRMC,140344.781,A,4051.075,N,01416.238,E,038.9,267.5,260723,000.0,W*7D
$GPGGA,140345.781,4051.074,N,01416.224,E,1,12,1.0,0.0,M,0.0,M,,*62
$GPGSA,A,3,01,02,03,04,05,06,07,08,09,10,11,12,1.0,1.0,1.0*30
$GPRMC,140345.781,A,4051.074,N,01416.224,E,038.9,267.5,260723,000.0,W*70
$GPGGA,140346.781,4051.074,N,01416.210,E,1,12,1.0,0.0,M,0.0,M,,*66
$GPGSA,A,3,01,02,03,04,05,06,07,08,09,10,11,12,1.0,1.0,1.0*30
$GPRMC,140346.781,A,4051.074,N,01416.210,E,038.9,267.5,260723,000.0,W*74
$GPGGA,140347.781,4051.073,N,01416.196,E,1,12,1.0,0.0,M,0.0,M,,*6D
$GPGSA,A,3,01,02,03,04,05,06,07,08,09,10,11,12,1.0,1.0,1.0*30
$GPRMC,140347.781,A,4051.073,N,01416.196,E,038.9,267.5,260723,000.0,W*7F
$GPGGA,140348.781,4051.072,N,01416.181,E,1,12,1.0,0.0,M,0.0,M,,*65
$GPGSA,A,3,01,02,03,04,05,06,07,08,09,10,11,12,1.0,1.0,1.0*30
$GPRMC,140348.781,A,4051.072,N,01416.181,E,038.9,267.5,260723,000.0,W*77
$GPGGA,140349.781,4051.072,N,01416.167,E,1,12,1.0,0.0,M,0.0,M,,*6C
$GPGSA,A,3,01,02,03,04,05,06,07,08,09,10,11,12,1.0,1.0,1.0*30
$GPRMC,140349.781,A,4051.072,N,01416.167,E,038.9,267.5,260723,000.0,W*7E
$GPGGA,140350.781,4051.071,N,01416.153,E,1,12,1.0,0.0,M,0.0,M,,*60
$GPGSA,A,3,01,02,03,04,05,06,07,08,09,10,11,12,1.0,1.0,1.0*30
$GPRMC,140350.781,A,4051.071,N,01416.153,E,038.9,267.5,260723,000.0,W*72
$GPGGA,140351.781,4051.071,N,01416.139,E,1,12,1.0,0.0,M,0.0,M,,*6D
$GPGSA,A,3,01,02,03,04,05,06,07,08,09,10,11,12,1.0,1.0,1.0*30
$GPRMC,140351.781,A,4051.071,N,01416.139,E,038.9,267.5,260723,000.0,W*7F
$GPGGA,140352.781,4051.070,N,01416.124,E,1,12,1.0,0.0,M,0.0,M,,*63
$GPGSA,A,3,01,02,03,04,05,06,07,08,09,10,11,12,1.0,1.0,1.0*30
$GPRMC,140352.781,A,4051.070,N,01416.124,E,038.9,267.5,260723,000.0,W*71
$GPGGA,140353.781,4051.069,N,01416.110,E,1,12,1.0,0.0,M,0.0,M,,*6D
$GPGSA,A,3,01,02,03,04,05,06,07,08,09,10,11,12,1.0,1.0,1.0*30
$GPRMC,140353.781,A,4051.069,N,01416.110,E,038.9,267.5,260723,000.0,W*7F
$GPGGA,140354.781,4051.069,N,01416.096,E,1,12,1.0,0.0,M,0.0,M,,*65
$GPGSA,A,3,01,02,03,04,05,06,07,08,09,10,11,12,1.0,1.0,1.0*30
$GPRMC,140354.781,A,4051.069,N,01416.096,E,038.9,267.5,260723,000.0,W*77
$GPGGA,140355.781,4051.068,N,01416.082,E,1,12,1.0,0.0,M,0.0,M,,*60
$GPGSA,A,3,01,02,03,04,05,06,07,08,09,10,11,12,1.0,1.0,1.0*30
$GPRMC,140355.781,A,4051.068,N,01416.082,E,038.9,267.5,260723,000.0,W*72
$GPGGA,140356.781,4051.068,N,01416.067,E,1,12,1.0,0.0,M,0.0,M,,*68
$GPGSA,A,3,01,02,03,04,05,06,07,08,09,10,11,12,1.0,1.0,1.0*30
$GPRMC,140356.781,A,4051.068,N,01416.067,E,038.9,267.5,260723,000.0,W*7A
$GPGGA,140357.781,4051.067,N,01416.053,E,1,12,1.0,0.0,M,0.0,M,,*61
$GPGSA,A,3,01,02,03,04,05,06,07,08,09,10,11,12,1.0,1.0,1.0*30
$GPRMC,140357.781,A,4051.067,N,01416.053,E,038.9,267.5,260723,000.0,W*73
$GPGGA,140358.781,4051.066,N,01416.039,E,1,12,1.0,0.0,M,0.0,M,,*63
$GPGSA,A,3,01,02,03,04,05,06,07,08,09,10,11,12,1.0,1.0,1.0*30
$GPRMC,140358.781,A,4051.066,N,01416.039,E,038.9,267.5,260723,000.0,W*71
$GPGGA,140359.781,4051.066,N,01416.025,E,1,12,1.0,0.0,M,0.0,M,,*6F
$GPGSA,A,3,01,02,03,04,05,06,07,08,09,10,11,12,1.0,1.0,1.0*30
$GPRMC,140359.781,A,4051.066,N,01416.025,E,038.9,267.5,260723,000.0,W*7D
$GPGGA,140400.781,4051.065,N,01416.010,E,1,12,1.0,0.0,M,0.0,M,,*61
$GPGSA,A,3,01,02,03,04,05,06,07,08,09,10,11,12,1.0,1.0,1.0*30
$GPRMC,140400.781,A,4051.065,N,01416.010,E,038.9,267.5,260723,000.0,W*73
$GPGGA,140401.781,4051.064,N,01415.996,E,1,12,1.0,0.0,M,0.0,M,,*65
$GPGSA,A,3,01,02,03,04,05,06,07,08,09,10,11,12,1.0,1.0,1.0*30
$GPRMC,140401.781,A,4051.064,N,01415.996,E,038.9,267.5,260723,000.0,W*77
$GPGGA,140402.781,4051.064,N,01415.982,E,1,12,1.0,0.0,M,0.0,M,,*63
$GPGSA,A,3,01,02,03,04,05,06,07,08,09,10,11,12,1.0,1.0,1.0*30
$GPRMC,140402.781,A,4051.064,N,01415.982,E,038.9,267.5,260723,000.0,W*71
$GPGGA,140403.781,4051.063,N,01415.968,E,1,12,1.0,0.0,M,0.0,M,,*61
$GPGSA,A,3,01,02,03,04,05,06,07,08,09,10,11,12,1.0,1.0,1.0*30
$GPRMC,140403.781,A,4051.063,N,01415.968,E,038.9,267.5,260723,000.0,W*73
$GPGGA,140404.781,4051.063,N,01415.953,E,1,12,1.0,0.0,M,0.0,M,,*6E
$GPGSA,A,3,01,02,03,04,05,06,07,08,09,10,11,12,1.0,1.0,1.0*30
$GPRMC,140404.781,A,4051.063,N,01415.953,E,038.9,267.5,260723,000.0,W*7C
$GPGGA,140405.781,4051.062,N,01415.939,E,1,12,1.0,0.0,M,0.0,M,,*62
$GPGSA,A,3,01,02,03,04,05,06,07,08,09,10,11,12,1.0,1.0,1.0*30
$GPRMC,140405.781,A,4051.062,N,01415.939,E,038.9,267.5,260723,000.0,W*70
$GPGGA,140406.781,4051.061,N,01415.925,E,1,12,1.0,0.0,M,0.0,M,,*6F
$GPGSA,A,3,01,02,03,04,05,06,07,08,09,10,11,12,1.0,1.0,1.0*30
$GPRMC,140406.781,A,4051.061,N,01415.925,E,038.9,267.5,260723,000.0,W*7D
$GPGGA,140407.781,4051.061,N,01415.911,E,1,12,1.0,0.0,M,0.0,M,,*69
$GPGSA,A,3,01,02,03,04,05,06,07,08,09,10,11,12,1.0,1.0,1.0*30
$GPRMC,140407.781,A,4051.061,N,01415.911,E,038.9,267.5,260723,000.0,W*7B
$GPGGA,140408.781,4051.060,N,01415.896,E,1,12,1.0,0.0,M,0.0,M,,*69
$GPGSA,A,3,01,02,03,04,05,06,07,08,09,10,11,12,1.0,1.0,1.0*30
$GPRMC,140408.781,A,4051.060,N,01415.896,E,038.9,267.5,260723,000.0,W*7B
$GPGGA,140409.781,4051.060,N,01415.882,E,1,12,1.0,0.0,M,0.0,M,,*6D
$GPGSA,A,3,01,02,03,04,05,06,07,08,09,10,11,12,1.0,1.0,1.0*30
$GPRMC,140409.781,A,4051.060,N,01415.882,E,038.9,267.5,260723,000.0,W*7F
$GPGGA,140410.781,4051.059,N,01415.868,E,1,12,1.0,0.0,M,0.0,M,,*6B
$GPGSA,A,3,01,02,03,04,05,06,07,08,09,10,11,12,1.0,1.0,1.0*30
$GPRMC,140410.781,A,4051.059,N,01415.868,E,038.9,267.5,260723,000.0,W*79
$GPGGA,140411.781,4051.058,N,01415.854,E,1,12,1.0,0.0,M,0.0,M,,*64
$GPGSA,A,3,01,02,03,04,05,06,07,08,09,10,11,12,1.0,1.0,1.0*30
$GPRMC,140411.781,A,4051.058,N,01415.854,E,038.9,267.5,260723,000.0,W*76
$GPGGA,140412.781,4051.058,N,01415.839,E,1,12,1.0,0.0,M,0.0,M,,*6C
$GPGSA,A,3,01,02,03,04,05,06,07,08,09,10,11,12,1.0,1.0,1.0*30
$GPRMC,140412.781,A,4051.058,N,01415.839,E,038.9,267.5,260723,000.0,W*7E
$GPGGA,140413.781,4051.057,N,01415.825,E,1,12,1.0,0.0,M,0.0,M,,*6F
$GPGSA,A,3,01,02,03,04,05,06,07,08,09,10,11,12,1.0,1.0,1.0*30
$GPRMC,140413.781,A,4051.057,N,01415.825,E,038.9,267.5,260723,000.0,W*7D
$GPGGA,140414.781,4051.057,N,01415.811,E,1,12,1.0,0.0,M,0.0,M,,*6F
$GPGSA,A,3,01,02,03,04,05,06,07,08,09,10,11,12,1.0,1.0,1.0*30
$GPRMC,140414.781,A,4051.057,N,01415.811,E,038.9,267.5,260723,000.0,W*7D
$GPGGA,140415.781,4051.056,N,01415.797,E,1,12,1.0,0.0,M,0.0,M,,*6E
$GPGSA,A,3,01,02,03,04,05,06,07,08,09,10,11,12,1.0,1.0,1.0*30
$GPRMC,140415.781,A,4051.056,N,01415.797,E,038.9,267.5,260723,000.0,W*7C
$GPGGA,140416.781,4051.055,N,01415.782,E,1,12,1.0,0.0,M,0.0,M,,*6A
$GPGSA,A,3,01,02,03,04,05,06,07,08,09,10,11,12,1.0,1.0,1.0*30
$GPRMC,140416.781,A,4051.055,N,01415.782,E,038.9,267.5,260723,000.0,W*78
$GPGGA,140417.781,4051.055,N,01415.768,E,1,12,1.0,0.0,M,0.0,M,,*6F
$GPGSA,A,3,01,02,03,04,05,06,07,08,09,10,11,12,1.0,1.0,1.0*30
$GPRMC,140417.781,A,4051.055,N,01415.768,E,038.9,267.5,260723,000.0,W*7D
$GPGGA,140418.781,4051.054,N,01415.754,E,1,12,1.0,0.0,M,0.0,M,,*6E
$GPGSA,A,3,01,02,03,04,05,06,07,08,09,10,11,12,1.0,1.0,1.0*30
$GPRMC,140418.781,A,4051.054,N,01415.754,E,038.9,267.5,260723,000.0,W*7C
$GPGGA,140419.781,4051.053,N,01415.740,E,1,12,1.0,0.0,M,0.0,M,,*6D
$GPGSA,A,3,01,02,03,04,05,06,07,08,09,10,11,12,1.0,1.0,1.0*30
$GPRMC,140419.781,A,4051.053,N,01415.740,E,038.9,267.5,260723,000.0,W*7F
$GPGGA,140420.781,4051.053,N,01415.725,E,1,12,1.0,0.0,M,0.0,M,,*64
$GPGSA,A,3,01,02,03,04,05,06,07,08,09,10,11,12,1.0,1.0,1.0*30
$GPRMC,140420.781,A,4051.053,N,01415.725,E,038.9,267.5,260723,000.0,W*76
$GPGGA,140421.781,4051.052,N,01415.711,E,1,12,1.0,0.0,M,0.0,M,,*63
$GPGSA,A,3,01,02,03,04,05,06,07,08,09,10,11,12,1.0,1.0,1.0*30
$GPRMC,140421.781,A,4051.052,N,01415.711,E,038.9,267.5,260723,000.0,W*71
$GPGGA,140422.781,4051.052,N,01415.697,E,1,12,1.0,0.0,M,0.0,M,,*6F
$GPGSA,A,3,01,02,03,04,05,06,07,08,09,10,11,12,1.0,1.0,1.0*30
$GPRMC,140422.781,A,4051.052,N,01415.697,E,038.9,267.5,260723,000.0,W*7D
$GPGGA,140423.781,4051.051,N,01415.683,E,1,12,1.0,0.0,M,0.0,M,,*68
$GPGSA,A,3,01,02,03,04,05,06,07,08,09,10,11,12,1.0,1.0,1.0*30
$GPRMC,140423.781,A,4051.051,N,01415.683,E,038.9,267.5,260723,000.0,W*7A
$GPGGA,140424.781,4051.050,N,01415.669,E,1,12,1.0,0.0,M,0.0,M,,*6A
$GPGSA,A,3,01,02,03,04,05,06,07,08,09,10,11,12,1.0,1.0,1.0*30
$GPRMC,140424.781,A,4051.050,N,01415.669,E,038.9,267.5,260723,000.0,W*78
$GPGGA,140425.781,4051.050,N,01415.654,E,1,12,1.0,0.0,M,0.0,M,,*65
$GPGSA,A,3,01,02,03,04,05,06,07,08,09,10,11,12,1.0,1.0,1.0*30
$GPRMC,140425.781,A,4051.050,N,01415.654,E,038.9,267.5,260723,000.0,W*77
$GPGGA,140426.781,4051.049,N,01415.640,E,1,12,1.0,0.0,M,0.0,M,,*6B
$GPGSA,A,3,01,02,03,04,05,06,07,08,09,10,11,12,1.0,1.0,1.0*30
$GPRMC,140426.781,A,4051.049,N,01415.640,E,038.9,267.5,260723,000.0,W*79
$GPGGA,140427.781,4051.049,N,01415.626,E,1,12,1.0,0.0,M,0.0,M,,*6A
$GPGSA,A,3,01,02,03,04,05,06,07,08,09,10,11,12,1.0,1.0,1.0*30
$GPRMC,140427.781,A,4051.049,N,01415.626,E,038.9,267.5,260723,000.0,W*78
$GPGGA,140428.781,4051.048,N,01415.612,E,1,12,1.0,0.0,M,0.0,M,,*63
$GPGSA,A,3,01,02,03,04,05,06,07,08,09,10,11,12,1.0,1.0,1.0*30
$GPRMC,140428.781,A,4051.048,N,01415.612,E,038.9,267.5,260723,000.0,W*71
$GPGGA,140429.781,4051.047,N,01415.597,E,1,12,1.0,0.0,M,0.0,M,,*63
$GPGSA,A,3,01,02,03,04,05,06,07,08,09,10,11,12,1.0,1.0,1.0*30
$GPRMC,140429.781,A,4051.047,N,01415.597,E,038.9,267.5,260723,000.0,W*71
$GPGGA,140430.781,4051.047,N,01415.583,E,1,12,1.0,0.0,M,0.0,M,,*6E
$GPGSA,A,3,01,02,03,04,05,06,07,08,09,10,11,12,1.0,1.0,1.0*30
$GPRMC,140430.781,A,4051.047,N,01415.583,E,038.9,267.5,260723,000.0,W*7C
$GPGGA,140431.781,4051.046,N,01415.569,E,1,12,1.0,0.0,M,0.0,M,,*6A
$GPGSA,A,3,01,02,03,04,05,06,07,08,09,10,11,12,1.0,1.0,1.0*30
$GPRMC,140431.781,A,4051.046,N,01415.569,E,038.9,267.5,260723,000.0,W*78
$GPGGA,140432.781,4051.046,N,01415.555,E,1,12,1.0,0.0,M,0.0,M,,*66
$GPGSA,A,3,01,02,03,04,05,06,07,08,09,10,11,12,1.0,1.0,1.0*30
$GPRMC,140432.781,A,4051.046,N,01415.555,E,038.9,267.5,260723,000.0,W*74
$GPGGA,140433.781,4051.045,N,01415.540,E,1,12,1.0,0.0,M,0.0,M,,*60
$GPGSA,A,3,01,02,03,04,05,06,07,08,09,10,11,12,1.0,1.0,1.0*30
$GPRMC,140433.781,A,4051.045,N,01415.540,E,038.9,267.5,260723,000.0,W*72
$GPGGA,140434.781,4051.044,N,01415.526,E,1,12,1.0,0.0,M,0.0,M,,*66
$GPGSA,A,3,01,02,03,04,05,06,07,08,09,10,11,12,1.0,1.0,1.0*30
$GPRMC,140434.781,A,4051.044,N,01415.526,E,038.9,267.5,260723,000.0,W*74
$GPGGA,140435.781,4051.044,N,01415.512,E,1,12,1.0,0.0,M,0.0,M,,*60
$GPGSA,A,3,01,02,03,04,05,06,07,08,09,10,11,12,1.0,1.0,1.0*30
$GPRMC,140435.781,A,4051.044,N,01415.512,E,038.9,267.5,260723,000.0,W*72
$GPGGA,140436.781,4051.043,N,01415.498,E,1,12,1.0,0.0,M,0.0,M,,*67
$GPGSA,A,3,01,02,03,04,05,06,07,08,09,10,11,12,1.0,1.0,1.0*30
$GPRMC,140436.781,A,4051.043,N,01415.498,E,038.9,267.5,260723,000.0,W*75
$GPGGA,140437.781,4051.042,N,01415.483,E,1,12,1.0,0.0,M,0.0,M,,*6D
$GPGSA,A,3,01,02,03,04,05,06,07,08,09,10,11,12,1.0,1.0,1.0*30
$GPRMC,140437.781,A,4051.042,N,01415.483,E,038.9,267.5,260723,000.0,W*7F
$GPGGA,140438.781,4051.042,N,01415.469,E,1,12,1.0,0.0,M,0.0,M,,*66
$GPGSA,A,3,01,02,03,04,05,06,07,08,09,10,11,12,1.0,1.0,1.0*30
$GPRMC,140438.781,A,4051.042,N,01415.469,E,038.9,267.5,260723,000.0,W*74
$GPGGA,140439.781,4051.041,N,01415.455,E,1,12,1.0,0.0,M,0.0,M,,*6B
$GPGSA,A,3,01,02,03,04,05,06,07,08,09,10,11,12,1.0,1.0,1.0*30
$GPRMC,140439.781,A,4051.041,N,01415.455,E,038.9,267.5,260723,000.0,W*79
$GPGGA,140440.781,4051.041,N,01415.441,E,1,12,1.0,0.0,M,0.0,M,,*60
$GPGSA,A,3,01,02,03,04,05,06,07,08,09,10,11,12,1.0,1.0,1.0*30
$GPRMC,140440.781,A,4051.041,N,01415.441,E,038.9,267.5,260723,000.0,W*72
$GPGGA,140441.781,4051.040,N,01415.426,E,1,12,1.0,0.0,M,0.0,M,,*61
$GPGSA,A,3,01,02,03,04,05,06,07,08,09,10,11,12,1.0,1.0,1.0*30
$GPRMC,140441.781,A,4051.040,N,01415.426,E,038.9,267.5,260723,000.0,W*73
$GPGGA,140442.781,4051.039,N,01415.412,E,1,12,1.0,0.0,M,0.0,M,,*6B
$GPGSA,A,3,01,02,03,04,05,06,07,08,09,10,11,12,1.0,1.0,1.0*30
$GPRMC,140442.781,A,4051.039,N,01415.412,E,038.9,267.5,260723,000.0,W*79
$GPGGA,140443.781,4051.039,N,01415.398,E,1,12,1.0,0.0,M,0.0,M,,*6F
$GPGSA,A,3,01,02,03,04,05,06,07,08,09,10,11,12,1.0,1.0,1.0*30
$GPRMC,140443.781,A,4051.039,N,01415.398,E,038.9,267.5,260723,000.0,W*7D
$GPGGA,140444.781,4051.038,N,01415.384,E,1,12,1.0,0.0,M,0.0,M,,*64
$GPGSA,A,3,01,02,03,04,05,06,07,08,09,10,11,12,1.0,1.0,1.0*30
$GPRMC,140444.781,A,4051.038,N,01415.384,E,038.9,267.5,260723,000.0,W*76
$GPGGA,140445.781,4051.038,N,01415.369,E,1,12,1.0,0.0,M,0.0,M,,*66
$GPGSA,A,3,01,02,03,04,05,06,07,08,09,10,11,12,1.0,1.0,1.0*30
$GPRMC,140445.781,A,4051.038,N,01415.369,E,038.9,267.5,260723,000.0,W*74
$GPGGA,140446.781,4051.037,N,01415.355,E,1,12,1.0,0.0,M,0.0,M,,*65
$GPGSA,A,3,01,02,03,04,05,06,07,08,09,10,11,12,1.0,1.0,1.0*30
$GPRMC,140446.781,A,4051.037,N,01415.355,E,038.9,267.5,260723,000.0,W*77
$GPGGA,140447.781,4051.036,N,01415.341,E,1,12,1.0,0.0,M,0.0,M,,*60
$GPGSA,A,3,01,02,03,04,05,06,07,08,09,10,11,12,1.0,1.0,1.0*30
$GPRMC,140447.781,A,4051.036,N,01415.341,E,038.9,267.5,260723,000.0,W*72
$GPGGA,140448.781,4051.036,N,01415.327,E,1,12,1.0,0.0,M,0.0,M,,*6F
$GPGSA,A,3,01,02,03,04,05,06,07,08,09,10,11,12,1.0,1.0,1.0*30
$GPRMC,140448.781,A,4051.036,N,01415.327,E,038.9,267.5,260723,000.0,W*7D
$GPGGA,140449.781,4051.035,N,01415.312,E,1,12,1.0,0.0,M,0.0,M,,*6B
$GPGSA,A,3,01,02,03,04,05,06,07,08,09,10,11,12,1.0,1.0,1.0*30
$GPRMC,140449.781,A,4051.035,N,01415.312,E,038.9,267.5,260723,000.0,W*79
$GPGGA,140450.781,4051.035,N,01415.298,E,1,12,1.0,0.0,M,0.0,M,,*60
$GPGSA,A,3,01,02,03,04,05,06,07,08,09,10,11,12,1.0,1.0,1.0*30
$GPRMC,140450.781,A,4051.035,N,01415.298,E,038.9,257.8,260723,000.0,W*7C
$GPGGA,140451.781,4051.032,N,01415.284,E,1,12,1.0,0.0,M,0.0,M,,*6B
$GPGSA,A,3,01,02,03,04,05,06,07,08,09,10,11,12,1.0,1.0,1.0*30
$GPRMC,140451.781,A,4051.032,N,01415.284,E,038.9,257.8,260723,000.0,W*77
$GPGGA,140452.781,4051.029,N,01415.271,E,1,12,1.0,0.0,M,0.0,M,,*68
$GPGSA,A,3,01,02,03,04,05,06,07,08,09,10,11,12,1.0,1.0,1.0*30
$GPRMC,140452.781,A,4051.029,N,01415.271,E,038.9,257.8,260723,000.0,W*74
$GPGGA,140453.781,4051.026,N,01415.257,E,1,12,1.0,0.0,M,0.0,M,,*62
$GPGSA,A,3,01,02,03,04,05,06,07,08,09,10,11,12,1.0,1.0,1.0*30
$GPRMC,140453.781,A,4051.026,N,01415.257,E,038.9,257.8,260723,000.0,W*7E
$GPGGA,140454.781,4051.023,N,01415.243,E,1,12,1.0,0.0,M,0.0,M,,*65
$GPGSA,A,3,01,02,03,04,05,06,07,08,09,10,11,12,1.0,1.0,1.0*30
$GPRMC,140454.781,A,4051.023,N,01415.243,E,038.9,257.8,260723,000.0,W*79
$GPGGA,140455.781,4051.020,N,01415.230,E,1,12,1.0,0.0,M,0.0,M,,*63
$GPGSA,A,3,01,02,03,04,05,06,07,08,09,10,11,12,1.0,1.0,1.0*30
$GPRMC,140455.781,A,4051.020,N,01415.230,E,038.9,257.8,260723,000.0,W*7F
$GPGGA,140456.781,4051.017,N,01415.216,E,1,12,1.0,0.0,M,0.0,M,,*60
$GPGSA,A,3,01,02,03,04,05,06,07,08,09,10,11,12,1.0,1.0,1.0*30
$GPRMC,140456.781,A,4051.017,N,01415.216,E,038.9,257.8,260723,000.0,W*7C
$GPGGA,140457.781,4051.014,N,01415.202,E,1,12,1.0,0.0,M,0.0,M,,*67
$GPGSA,A,3,01,02,03,04,05,06,07,08,09,10,11,12,1.0,1.0,1.0*30
$GPRMC,140457.781,A,4051.014,N,01415.202,E,038.9,257.8,260723,000.0,W*7B
$GPGGA,140458.781,4051.011,N,01415.188,E,1,12,1.0,0.0,M,0.0,M,,*6C
$GPGSA,A,3,01,02,03,04,05,06,07,08,09,10,11,12,1.0,1.0,1.0*30
$GPRMC,140458.781,A,4051.011,N,01415.188,E,038.9,257.8,260723,000.0,W*70
$GPGGA,140459.781,4051.008,N,01415.175,E,1,12,1.0,0.0,M,0.0,M,,*67
$GPGSA,A,3,01,02,03,04,05,06,07,08,09,10,11,12,1.0,1.0,1.0*30
$GPRMC,140459.781,A,4051.008,N,01415.175,E,038.9,257.8,260723,000.0,W*7B
$GPGGA,140500.781,4051.005,N,01415.161,E,1,12,1.0,0.0,M,0.0,M,,*62
$GPGSA,A,3,01,02,03,04,05,06,07,08,09,10,11,12,1.0,1.0,1.0*30
$GPRMC,140500.781,A,4051.005,N,01415.161,E,038.9,257.8,260723,000.0,W*7E
$GPGGA,140501.781,4051.002,N,01415.147,E,1,12,1.0,0.0,M,0.0,M,,*60
$GPGSA,A,3,01,02,03,04,05,06,07,08,09,10,11,12,1.0,1.0,1.0*30
$GPRMC,140501.781,A,4051.002,N,01415.147,E,038.9,257.8,260723,000.0,W*7C
$GPGGA,140502.781,4050.999,N,01415.134,E,1,12,1.0,0.0,M,0.0,M,,*6D
$GPGSA,A,3,01,02,03,04,05,06,07,08,09,10,11,12,1.0,1.0,1.0*30
$GPRMC,140502.781,A,4050.999,N,01415.134,E,038.9,257.8,260723,000.0,W*71
$GPGGA,140503.781,4050.996,N,01415.120,E,1,12,1.0,0.0,M,0.0,M,,*66
$GPGSA,A,3,01,02,03,04,05,06,07,08,09,10,11,12,1.0,1.0,1.0*30
$GPRMC,140503.781,A,4050.996,N,01415.120,E,038.9,257.8,260723,000.0,W*7A
$GPGGA,140504.781,4050.993,N,01415.106,E,1,12,1.0,0.0,M,0.0,M,,*60
$GPGSA,A,3,01,02,03,04,05,06,07,08,09,10,11,12,1.0,1.0,1.0*30
$GPRMC,140504.781,A,4050.993,N,01415.106,E,038.9,257.8,260723,000.0,W*7C
$GPGGA,140505.781,4050.990,N,01415.092,E,1,12,1.0,0.0,M,0.0,M,,*6E
$GPGSA,A,3,01,02,03,04,05,06,07,08,09,10,11,12,1.0,1.0,1.0*30
$GPRMC,140505.781,A,4050.990,N,01415.092,E,038.9,257.8,260723,000.0,W*72
$GPGGA,140506.781,4050.987,N,01415.079,E,1,12,1.0,0.0,M,0.0,M,,*6E
$GPGSA,A,3,01,02,03,04,05,06,07,08,09,10,11,12,1.0,1.0,1.0*30
$GPRMC,140506.781,A,4050.987,N,01415.079,E,038.9,257.8,260723,000.0,W*72
$GPGGA,140507.781,4050.984,N,01415.065,E,1,12,1.0,0.0,M,0.0,M,,*61
$GPGSA,A,3,01,02,03,04,05,06,07,08,09,10,11,12,1.0,1.0,1.0*30
$GPRMC,140507.781,A,4050.984,N,01415.065,E,038.9,257.8,260723,000.0,W*7D
$GPGGA,140508.781,4050.981,N,01415.051,E,1,12,1.0,0.0,M,0.0,M,,*6C
$GPGSA,A,3,01,02,03,04,05,06,07,08,09,10,11,12,1.0,1.0,1.0*30
$GPRMC,140508.781,A,4050.981,N,01415.051,E,038.9,257.8,260723,000.0,W*70
$GPGGA,140509.781,4050.978,N,01415.038,E,1,12,1.0,0.0,M,0.0,M,,*64
$GPGSA,A,3,01,02,03,04,05,06,07,08,09,10,11,12,1.0,1.0,1.0*30
$GPRMC,140509.781,A,4050.978,N,01415.038,E,038.9,257.8,260723,000.0,W*78
$GPGGA,140510.781,4050.975,N,01415.024,E,1,12,1.0,0.0,M,0.0,M,,*6C
$GPGSA,A,3,01,02,03,04,05,06,07,08,09,10,11,12,1.0,1.0,1.0*30
$GPRMC,140510.781,A,4050.975,N,01415.024,E,038.9,257.8,260723,000.0,W*70
$GPGGA,140511.781,4050.972,N,01415.010,E,1,12,1.0,0.0,M,0.0,M,,*6D
$GPGSA,A,3,01,02,03,04,05,06,07,08,09,10,11,12,1.0,1.0,1.0*30
$GPRMC,140511.781,A,4050.972,N,01415.010,E,038.9,257.8,260723,000.0,W*71
$GPGGA,140512.781,4050.969,N,01414.996,E,1,12,1.0,0.0,M,0.0,M,,*62
$GPGSA,A,3,01,02,03,04,05,06,07,08,09,10,11,12,1.0,1.0,1.0*30
$GPRMC,140512.781,A,4050.969,N,01414.996,E,038.9,257.8,260723,000.0,W*7E
$GPGGA,140513.781,4050.966,N,01414.983,E,1,12,1.0,0.0,M,0.0,M,,*68
$GPGSA,A,3,01,02,03,04,05,06,07,08,09,10,11,12,1.0,1.0,1.0*30
$GPRMC,140513.781,A,4050.966,N,01414.983,E,038.9,257.8,260723,000.0,W*74
$GPGGA,140514.781,4050.963,N,01414.969,E,1,12,1.0,0.0,M,0.0,M,,*6E
$GPGSA,A,3,01,02,03,04,05,06,07,08,09,10,11,12,1.0,1.0,1.0*30
$GPRMC,140514.781,A,4050.963,N,01414.969,E,038.9,257.8,260723,000.0,W*72
$GPGGA,140515.781,4050.960,N,01414.955,E,1,12,1.0,0.0,M,0.0,M,,*63
$GPGSA,A,3,01,02,03,04,05,06,07,08,09,10,11,12,1.0,1.0,1.0*30
$GPRMC,140515.781,A,4050.960,N,01414.955,E,038.9,257.8,260723,000.0,W*7F
$GPGGA,140516.781,4050.957,N,01414.942,E,1,12,1.0,0.0,M,0.0,M,,*62
$GPGSA,A,3,01,02,03,04,05,06,07,08,09,10,11,12,1.0,1.0,1.0*30
$GPRMC,140516.781,A,4050.957,N,01414.942,E,038.9,257.8,260723,000.0,W*7E
$GPGGA,140517.781,4050.954,N,01414.928,E,1,12,1.0,0.0,M,0.0,M,,*6C
$GPGSA,A,3,01,02,03,04,05,06,07,08,09,10,11,12,1.0,1.0,1.0*30
$GPRMC,140517.781,A,4050.954,N,01414.928,E,038.9,257.8,260723,000.0,W*70
$GPGGA,140518.781,4050.951,N,01414.914,E,1,12,1.0,0.0,M,0.0,M,,*69
$GPGSA,A,3,01,02,03,04,05,06,07,08,09,10,11,12,1.0,1.0,1.0*30
$GPRMC,140518.781,A,4050.951,N,01414.914,E,038.9,257.8,260723,000.0,W*75
$GPGGA,140519.781,4050.949,N,01414.900,E,1,12,1.0,0.0,M,0.0,M,,*64
$GPGSA,A,3,01,02,03,04,05,06,07,08,09,10,11,12,1.0,1.0,1.0*30
$GPRMC,140519.781,A,4050.949,N,01414.900,E,038.9,257.8,260723,000.0,W*78
$GPGGA,140520.781,4050.946,N,01414.887,E,1,12,1.0,0.0,M,0.0,M,,*6F
$GPGSA,A,3,01,02,03,04,05,06,07,08,09,10,11,12,1.0,1.0,1.0*30
$GPRMC,140520.781,A,4050.946,N,01414.887,E,038.9,257.8,260723,000.0,W*73
$GPGGA,140521.781,4050.943,N,01414.873,E,1,12,1.0,0.0,M,0.0,M,,*60
$GPGSA,A,3,01,02,03,04,05,06,07,08,09,10,11,12,1.0,1.0,1.0*30
$GPRMC,140521.781,A,4050.943,N,01414.873,E,038.9,257.8,260723,000.0,W*7C
$GPGGA,140522.781,4050.940,N,01414.859,E,1,12,1.0,0.0,M,0.0,M,,*68
$GPGSA,A,3,01,02,03,04,05,06,07,08,09,10,11,12,1.0,1.0,1.0*30
$GPRMC,140522.781,A,4050.940,N,01414.859,E,038.9,257.8,260723,000.0,W*74
$GPGGA,140523.781,4050.937,N,01414.845,E,1,12,1.0,0.0,M,0.0,M,,*64
$GPGSA,A,3,01,02,03,04,05,06,07,08,09,10,11,12,1.0,1.0,1.0*30
$GPRMC,140523.781,A,4050.937,N,01414.845,E,038.9,257.8,260723,000.0,W*78
$GPGGA,140524.781,4050.934,N,01414.832,E,1,12,1.0,0.0,M,0.0,M,,*60
$GPGSA,A,3,01,02,03,04,05,06,07,08,09,10,11,12,1.0,1.0,1.0*30
$GPRMC,140524.781,A,4050.934,N,01414.832,E,038.9,257.8,260723,000.0,W*7C
$GPGGA,140525.781,4050.931,N,01414.818,E,1,12,1.0,0.0,M,0.0,M,,*6C
$GPGSA,A,3,01,02,03,04,05,06,07,08,09,10,11,12,1.0,1.0,1.0*30
$GPRMC,140525.781,A,4050.931,N,01414.818,E,038.9,257.8,260723,000.0,W*70
$GPGGA,140526.781,4050.928,N,01414.804,E,1,12,1.0,0.0,M,0.0,M,,*6A
$GPGSA,A,3,01,02,03,04,05,06,07,08,09,10,11,12,1.0,1.0,1.0*30
$GPRMC,140526.781,A,4050.928,N,01414.804,E,038.9,257.8,260723,000.0,W*76
$GPGGA,140527.781,4050.925,N,01414.791,E,1,12,1.0,0.0,M,0.0,M,,*65
$GPGSA,A,3,01,02,03,04,05,06,07,08,09,10,11,12,1.0,1.0,1.0*30
$GPRMC,140527.781,A,4050.925,N,01414.791,E,038.9,257.8,260723,000.0,W*79
$GPGGA,140528.781,4050.922,N,01414.777,E,1,12,1.0,0.0,M,0.0,M,,*65
$GPGSA,A,3,01,02,03,04,05,06,07,08,09,10,11,12,1.0,1.0,1.0*30
$GPRMC,140528.781,A,4050.922,N,01414.777,E,038.9,257.8,260723,000.0,W*79
$GPGGA,140529.781,4050.919,N,01414.763,E,1,12,1.0,0.0,M,0.0,M,,*69
$GPGSA,A,3,01,02,03,04,05,06,07,08,09,10,11,12,1.0,1.0,1.0*30
$GPRMC,140529.781,A,4050.919,N,01414.763,E,038.9,257.8,260723,000.0,W*75
$GPGGA,140530.781,4050.916,N,01414.749,E,1,12,1.0,0.0,M,0.0,M,,*66
$GPGSA,A,3,01,02,03,04,05,06,07,08,09,10,11,12,1.0,1.0,1.0*30
$GPRMC,140530.781,A,4050.916,N,01414.749,E,038.9,257.8,260723,000.0,W*7A
$GPGGA,140531.781,4050.913,N,01414.736,E,1,12,1.0,0.0,M,0.0,M,,*6A
$GPGSA,A,3,01,02,03,04,05,06,07,08,09,10,11,12,1.0,1.0,1.0*30
$GPRMC,140531.781,A,4050.913,N,01414.736,E,038.9,257.8,260723,000.0,W*76
$GPGGA,140532.781,4050.910,N,01414.722,E,1,12,1.0,0.0,M,0.0,M,,*6F
$GPGSA,A,3,01,02,03,04,05,06,07,08,09,10,11,12,1.0,1.0,1.0*30
$GPRMC,140532.781,A,4050.910,N,01414.722,E,038.9,257.8,260723,000.0,W*73
$GPGGA,140533.781,4050.907,N,01414.708,E,1,12,1.0,0.0,M,0.0,M,,*60
$GPGSA,A,3,01,02,03,04,05,06,07,08,09,10,11,12,1.0,1.0,1.0*30
$GPRMC,140533.781,A,4050.907,N,01414.708,E,038.9,257.8,260723,000.0,W*7C
$GPGGA,140534.781,4050.904,N,01414.695,E,1,12,1.0,0.0,M,0.0,M,,*61
$GPGSA,A,3,01,02,03,04,05,06,07,08,09,10,11,12,1.0,1.0,1.0*30
$GPRMC,140534.781,A,4050.904,N,01414.695,E,038.9,257.8,260723,000.0,W*7D
$GPGGA,140535.781,4050.901,N,01414.681,E,1,12,1.0,0.0,M,0.0,M,,*60
$GPGSA,A,3,01,02,03,04,05,06,07,08,09,10,11,12,1.0,1.0,1.0*30
$GPRMC,140535.781,A,4050.901,N,01414.681,E,038.9,257.8,260723,000.0,W*7C
$GPGGA,140536.781,4050.898,N,01414.667,E,1,12,1.0,0.0,M,0.0,M,,*6A
$GPGSA,A,3,01,02,03,04,05,06,07,08,09,10,11,12,1.0,1.0,1.0*30
$GPRMC,140536.781,A,4050.898,N,01414.667,E,038.9,257.8,260723,000.0,W*76
$GPGGA,140537.781,4050.895,N,01414.653,E,1,12,1.0,0.0,M,0.0,M,,*61
$GPGSA,A,3,01,02,03,04,05,06,07,08,09,10,11,12,1.0,1.0,1.0*30
$GPRMC,140537.781,A,4050.895,N,01414.653,E,038.9,257.8,260723,000.0,W*7D
$GPGGA,140538.781,4050.892,N,01414.640,E,1,12,1.0,0.0,M,0.0,M,,*6B
$GPGSA,A,3,01,02,03,04,05,06,07,08,09,10,11,12,1.0,1.0,1.0*30
$GPRMC,140538.781,A,4050.892,N,01414.640,E,038.9,257.8,260723,000.0,W*77
$GPGGA,140539.781,4050.889,N,01414.626,E,1,12,1.0,0.0,M,0.0,M,,*60
$GPGSA,A,3,01,02,03,04,05,06,07,08,09,10,11,12,1.0,1.0,1.0*30
$GPRMC,140539.781,A,4050.889,N,01414.626,E,038.9,257.8,260723,000.0,W*7C
$GPGGA,140540.781,4050.886,N,01414.612,E,1,12,1.0,0.0,M,0.0,M,,*66
$GPGSA,A,3,01,02,03,04,05,06,07,08,09,10,11,12,1.0,1.0,1.0*30
$GPRMC,140540.781,A,4050.886,N,01414.612,E,038.9,257.8,260723,000.0,W*7A
$GPGGA,140541.781,4050.883,N,01414.599,E,1,12,1.0,0.0,M,0.0,M,,*62
$GPGSA,A,3,01,02,03,04,05,06,07,08,09,10,11,12,1.0,1.0,1.0*30
$GPRMC,140541.781,A,4050.883,N,01414.599,E,038.9,257.8,260723,000.0,W*7E
$GPGGA,140542.781,4050.880,N,01414.585,E,1,12,1.0,0.0,M,0.0,M,,*6F
$GPGSA,A,3,01,02,03,04,05,06,07,08,09,10,11,12,1.0,1.0,1.0*30
$GPRMC,140542.781,A,4050.880,N,01414.585,E,038.9,257.8,260723,000.0,W*73
$GPGGA,140543.781,4050.877,N,01414.571,E,1,12,1.0,0.0,M,0.0,M,,*6D
$GPGSA,A,3,01,02,03,04,05,06,07,08,09,10,11,12,1.0,1.0,1.0*30
$GPRMC,140543.781,A,4050.877,N,01414.571,E,038.9,257.8,260723,000.0,W*71
$GPGGA,140544.781,4050.874,N,01414.557,E,1,12,1.0,0.0,M,0.0,M,,*6D
$GPGSA,A,3,01,02,03,04,05,06,07,08,09,10,11,12,1.0,1.0,1.0*30
$GPRMC,140544.781,A,4050.874,N,01414.557,E,038.9,257.8,260723,000.0,W*71
$GPGGA,140545.781,4050.871,N,01414.544,E,1,12,1.0,0.0,M,0.0,M,,*6B
$GPGSA,A,3,01,02,03,04,05,06,07,08,09,10,11,12,1.0,1.0,1.0*30
$GPRMC,140545.781,A,4050.871,N,01414.544,E,038.9,257.8,260723,000.0,W*77
$GPGGA,140546.781,4050.868,N,01414.530,E,1,12,1.0,0.0,M,0.0,M,,*63
$GPGSA,A,3,01,02,03,04,05,06,07,08,09,10,11,12,1.0,1.0,1.0*30
$GPRMC,140546.781,A,4050.868,N,01414.530,E,038.9,257.8,260723,000.0,W*7F
$GPGGA,140547.781,4050.866,N,01414.516,E,1,12,1.0,0.0,M,0.0,M,,*68
$GPGSA,A,3,01,02,03,04,05,06,07,08,09,10,11,12,1.0,1.0,1.0*30
$GPRMC,140547.781,A,4050.866,N,01414.516,E,038.9,257.8,260723,000.0,W*74
$GPGGA,140548.781,4050.863,N,01414.503,E,1,12,1.0,0.0,M,0.0,M,,*66
$GPGSA,A,3,01,02,03,04,05,06,07,08,09,10,11,12,1.0,1.0,1.0*30
$GPRMC,140548.781,A,4050.863,N,01414.503,E,038.9,257.8,260723,000.0,W*7A
$GPGGA,140549.781,4050.860,N,01414.489,E,1,12,1.0,0.0,M,0.0,M,,*67
$GPGSA,A,3,01,02,03,04,05,06,07,08,09,10,11,12,1.0,1.0,1.0*30
$GPRMC,140549.781,A,4050.860,N,01414.489,E,038.9,257.8,260723,000.0,W*7B
$GPGGA,140550.781,4050.857,N,01414.475,E,1,12,1.0,0.0,M,0.0,M,,*68
$GPGSA,A,3,01,02,03,04,05,06,07,08,09,10,11,12,1.0,1.0,1.0*30
$GPRMC,140550.781,A,4050.857,N,01414.475,E,038.9,257.8,260723,000.0,W*74
