$GPGGA,092552.080,4051.182,N,01416.666,E,1,12,1.0,0.0,M,0.0,M,,*60
$GPGSA,A,3,01,02,03,04,05,06,07,08,09,10,11,12,1.0,1.0,1.0*30
$GPRMC,092552.080,A,4051.182,N,01416.666,E,038.3,265.9,021023,000.0,W*76
$GPGGA,092553.080,4051.181,N,01416.652,E,1,12,1.0,0.0,M,0.0,M,,*65
$GPGSA,A,3,01,02,03,04,05,06,07,08,09,10,11,12,1.0,1.0,1.0*30
$GPRMC,092553.080,A,4051.181,N,01416.652,E,040.9,270.0,021023,000.0,W*7B
$GPGGA,092554.080,4051.181,N,01416.637,E,1,12,1.0,0.0,M,0.0,M,,*61
$GPGSA,A,3,01,02,03,04,05,06,07,08,09,10,11,12,1.0,1.0,1.0*30
$GPRMC,092554.080,A,4051.181,N,01416.637,E,038.3,265.9,021023,000.0,W*77
$GPGGA,092555.080,4051.180,N,01416.623,E,1,12,1.0,0.0,M,0.0,M,,*64
$GPGSA,A,3,01,02,03,04,05,06,07,08,09,10,11,12,1.0,1.0,1.0*30
$GPRMC,092555.080,A,4051.180,N,01416.623,E,038.1,270.0,021023,000.0,W*7D
$GPGGA,092556.080,4051.180,N,01416.609,E,1,12,1.0,0.0,M,0.0,M,,*6F
$GPGSA,A,3,01,02,03,04,05,06,07,08,09,10,11,12,1.0,1.0,1.0*30
$GPRMC,092556.080,A,4051.180,N,01416.609,E,038.3,265.9,021023,000.0,W*79
$GPGGA,092557.080,4051.179,N,01416.595,E,1,12,1.0,0.0,M,0.0,M,,*6E
$GPGSA,A,3,01,02,03,04,05,06,07,08,09,10,11,12,1.0,1.0,1.0*30
$GPRMC,092557.080,A,4051.179,N,01416.595,E,040.9,270.0,021023,000.0,W*70
$GPGGA,092558.080,4051.179,N,01416.580,E,1,12,1.0,0.0,M,0.0,M,,*65
$GPGSA,A,3,01,02,03,04,05,06,07,08,09,10,11,12,1.0,1.0,1.0*30
$GPRMC,092558.080,A,4051.179,N,01416.580,E,038.3,265.9,021023,000.0,W*73
$GPGGA,092559.080,4051.178,N,01416.566,E,1,12,1.0,0.0,M,0.0,M,,*6D
$GPGSA,A,3,01,02,03,04,05,06,07,08,09,10,11,12,1.0,1.0,1.0*30
$GPRMC,092559.080,A,4051.178,N,01416.566,E,038.1,270.0,021023,000.0,W*74
$GPGGA,092600.080,4051.178,N,01416.552,E,1,12,1.0,0.0,M,0.0,M,,*65
$GPGSA,A,3,01,02,03,04,05,06,07,08,09,10,11,12,1.0,1.0,1.0*30
$GPRMC,092600.080,A,4051.178,N,01416.552,E,038.3,265.9,021023,000.0,W*73
$GPGGA,092601.080,4051.177,N,01416.538,E,1,12,1.0,0.0,M,0.0,M,,*67
$GPGSA,A,3,01,02,03,04,05,06,07,08,09,10,11,12,1.0,1.0,1.0*30
$GPRMC,092601.080,A,4051.177,N,01416.538,E,040.9,270.0,021023,000.0,W*79
$GPGGA,092602.080,4051.177,N,01416.523,E,1,12,1.0,0.0,M,0.0,M,,*6E
$GPGSA,A,3,01,02,03,04,05,06,07,08,09,10,11,12,1.0,1.0,1.0*30
$GPRMC,092602.080,A,4051.177,N,01416.523,E,038.3,265.9,021023,000.0,W*78
$GPGGA,092603.080,4051.176,N,01416.509,E,1,12,1.0,0.0,M,0.0,M,,*66
$GPGSA,A,3,01,02,03,04,05,06,07,08,09,10,11,12,1.0,1.0,1.0*30
$GPRMC,092603.080,A,4051.176,N,01416.509,E,038.1,270.0,021023,000.0,W*7F
$GPGGA,092604.080,4051.176,N,01416.495,E,1,12,1.0,0.0,M,0.0,M,,*65
$GPGSA,A,3,01,02,03,04,05,06,07,08,09,10,11,12,1.0,1.0,1.0*30
$GPRMC,092604.080,A,4051.176,N,01416.495,E,038.3,265.9,021023,000.0,W*73
$GPGGA,092605.080,4051.175,N,01416.481,E,1,12,1.0,0.0,M,0.0,M,,*62
$GPGSA,A,3,01,02,03,04,05,06,07,08,09,10,11,12,1.0,1.0,1.0*30
$GPRMC,092605.080,A,4051.175,N,01416.481,E,040.9,270.0,021023,000.0,W*7C
$GPGGA,092606.080,4051.175,N,01416.466,E,1,12,1.0,0.0,M,0.0,M,,*68
$GPGSA,A,3,01,02,03,04,05,06,07,08,09,10,11,12,1.0,1.0,1.0*30
$GPRMC,092606.080,A,4051.175,N,01416.466,E,038.3,265.9,021023,000.0,W*7E
$GPGGA,092607.080,4051.174,N,01416.452,E,1,12,1.0,0.0,M,0.0,M,,*6F
$GPGSA,A,3,01,02,03,04,05,06,07,08,09,10,11,12,1.0,1.0,1.0*30
$GPRMC,092607.080,A,4051.174,N,01416.452,E,038.1,270.0,021023,000.0,W*76
$GPGGA,092608.080,4051.174,N,01416.438,E,1,12,1.0,0.0,M,0.0,M,,*6C
$GPGSA,A,3,01,02,03,04,05,06,07,08,09,10,11,12,1.0,1.0,1.0*30
$GPRMC,092608.080,A,4051.174,N,01416.438,E,038.3,265.9,021023,000.0,W*7A
$GPGGA,092609.080,4051.173,N,01416.424,E,1,12,1.0,0.0,M,0.0,M,,*67
$GPGSA,A,3,01,02,03,04,05,06,07,08,09,10,11,12,1.0,1.0,1.0*30
$GPRMC,092609.080,A,4051.173,N,01416.424,E,040.9,270.0,021023,000.0,W*79
$GPGGA,092610.080,4051.173,N,01416.409,E,1,12,1.0,0.0,M,0.0,M,,*60
$GPGSA,A,3,01,02,03,04,05,06,07,08,09,10,11,12,1.0,1.0,1.0*30
$GPRMC,092610.080,A,4051.173,N,01416.409,E,038.3,265.9,021023,000.0,W*76
$GPGGA,092611.080,4051.172,N,01416.395,E,1,12,1.0,0.0,M,0.0,M,,*62
$GPGSA,A,3,01,02,03,04,05,06,07,08,09,10,11,12,1.0,1.0,1.0*30
$GPRMC,092611.080,A,4051.172,N,01416.395,E,038.3,265.9,021023,000.0,W*74
$GPGGA,092612.080,4051.171,N,01416.381,E,1,12,1.0,0.0,M,0.0,M,,*67
$GPGSA,A,3,01,02,03,04,05,06,07,08,09,10,11,12,1.0,1.0,1.0*30
$GPRMC,092612.080,A,4051.171,N,01416.381,E,038.1,270.0,021023,000.0,W*7E
$GPGGA,092613.080,4051.171,N,01416.367,E,1,12,1.0,0.0,M,0.0,M,,*6E
$GPGSA,A,3,01,02,03,04,05,06,07,08,09,10,11,12,1.0,1.0,1.0*30
$GPRMC,092613.080,A,4051.171,N,01416.367,E,041.0,266.2,021023,000.0,W*7D
$GPGGA,092614.080,4051.170,N,01416.352,E,1,12,1.0,0.0,M,0.0,M,,*6E
$GPGSA,A,3,01,02,03,04,05,06,07,08,09,10,11,12,1.0,1.0,1.0*30
$GPRMC,092614.080,A,4051.170,N,01416.352,E,038.1,270.0,021023,000.0,W*77
$GPGGA,092615.080,4051.170,N,01416.338,E,1,12,1.0,0.0,M,0.0,M,,*63
$GPGSA,A,3,01,02,03,04,05,06,07,08,09,10,11,12,1.0,1.0,1.0*30
$GPRMC,092615.080,A,4051.170,N,01416.338,E,038.3,265.9,021023,000.0,W*75
$GPGGA,092616.080,4051.169,N,01416.324,E,1,12,1.0,0.0,M,0.0,M,,*65
$GPGSA,A,3,01,02,03,04,05,06,07,08,09,10,11,12,1.0,1.0,1.0*30
$GPRMC,092616.080,A,4051.169,N,01416.324,E,038.1,270.0,021023,000.0,W*7C
$GPGGA,092617.080,4051.169,N,01416.310,E,1,12,1.0,0.0,M,0.0,M,,*63
$GPGSA,A,3,01,02,03,04,05,06,07,08,09,10,11,12,1.0,1.0,1.0*30
$GPRMC,092617.080,A,4051.169,N,01416.310,E,041.0,266.2,021023,000.0,W*70
$GPGGA,092618.080,4051.168,N,01416.295,E,1,12,1.0,0.0,M,0.0,M,,*61
$GPGSA,A,3,01,02,03,04,05,06,07,08,09,10,11,12,1.0,1.0,1.0*30
$GPRMC,092618.080,A,4051.168,N,01416.295,E,038.1,270.0,021023,000.0,W*78
$GPGGA,092619.080,4051.168,N,01416.281,E,1,12,1.0,0.0,M,0.0,M,,*65
$GPGSA,A,3,01,02,03,04,05,06,07,08,09,10,11,12,1.0,1.0,1.0*30
$GPRMC,092619.080,A,4051.168,N,01416.281,E,038.3,265.9,021023,000.0,W*73
$GPGGA,092620.080,4051.167,N,01416.267,E,1,12,1.0,0.0,M,0.0,M,,*68
$GPGSA,A,3,01,02,03,04,05,06,07,08,09,10,11,12,1.0,1.0,1.0*30
$GPRMC,092620.080,A,4051.167,N,01416.267,E,038.1,270.0,021023,000.0,W*71
$GPGGA,092621.080,4051.167,N,01416.253,E,1,12,1.0,0.0,M,0.0,M,,*6E
$GPGSA,A,3,01,02,03,04,05,06,07,08,09,10,11,12,1.0,1.0,1.0*30
$GPRMC,092621.080,A,4051.167,N,01416.253,E,041.0,266.2,021023,000.0,W*7D
$GPGGA,092622.080,4051.166,N,01416.238,E,1,12,1.0,0.0,M,0.0,M,,*61
$GPGSA,A,3,01,02,03,04,05,06,07,08,09,10,11,12,1.0,1.0,1.0*30
$GPRMC,092622.080,A,4051.166,N,01416.238,E,038.1,270.0,021023,000.0,W*78
$GPGGA,092623.080,4051.166,N,01416.224,E,1,12,1.0,0.0,M,0.0,M,,*6D
$GPGSA,A,3,01,02,03,04,05,06,07,08,09,10,11,12,1.0,1.0,1.0*30
$GPRMC,092623.080,A,4051.166,N,01416.224,E,038.3,265.9,021023,000.0,W*7B
$GPGGA,092624.080,4051.165,N,01416.210,E,1,12,1.0,0.0,M,0.0,M,,*6E
$GPGSA,A,3,01,02,03,04,05,06,07,08,09,10,11,12,1.0,1.0,1.0*30
$GPRMC,092624.080,A,4051.165,N,01416.210,E,038.1,270.0,021023,000.0,W*77
$GPGGA,092625.080,4051.165,N,01416.196,E,1,12,1.0,0.0,M,0.0,M,,*62
$GPGSA,A,3,01,02,03,04,05,06,07,08,09,10,11,12,1.0,1.0,1.0*30
$GPRMC,092625.080,A,4051.165,N,01416.196,E,041.0,266.2,021023,000.0,W*71
$GPGGA,092626.080,4051.164,N,01416.181,E,1,12,1.0,0.0,M,0.0,M,,*66
$GPGSA,A,3,01,02,03,04,05,06,07,08,09,10,11,12,1.0,1.0,1.0*30
$GPRMC,092626.080,A,4051.164,N,01416.181,E,038.1,270.0,021023,000.0,W*7F
$GPGGA,092627.080,4051.164,N,01416.167,E,1,12,1.0,0.0,M,0.0,M,,*6F
$GPGSA,A,3,01,02,03,04,05,06,07,08,09,10,11,12,1.0,1.0,1.0*30
$GPRMC,092627.080,A,4051.164,N,01416.167,E,038.3,265.9,021023,000.0,W*79
$GPGGA,092628.080,4051.163,N,01416.153,E,1,12,1.0,0.0,M,0.0,M,,*60
$GPGSA,A,3,01,02,03,04,05,06,07,08,09,10,11,12,1.0,1.0,1.0*30
$GPRMC,092628.080,A,4051.163,N,01416.153,E,038.1,270.0,021023,000.0,W*79
$GPGGA,092629.080,4051.163,N,01416.139,E,1,12,1.0,0.0,M,0.0,M,,*6D
$GPGSA,A,3,01,02,03,04,05,06,07,08,09,10,11,12,1.0,1.0,1.0*30
$GPRMC,092629.080,A,4051.163,N,01416.139,E,041.0,266.2,021023,000.0,W*7E
$GPGGA,092630.080,4051.162,N,01416.124,E,1,12,1.0,0.0,M,0.0,M,,*68
$GPGSA,A,3,01,02,03,04,05,06,07,08,09,10,11,12,1.0,1.0,1.0*30
$GPRMC,092630.080,A,4051.162,N,01416.124,E,038.3,265.9,021023,000.0,W*7E
$GPGGA,092631.080,4051.161,N,01416.110,E,1,12,1.0,0.0,M,0.0,M,,*6D
$GPGSA,A,3,01,02,03,04,05,06,07,08,09,10,11,12,1.0,1.0,1.0*30
$GPRMC,092631.080,A,4051.161,N,01416.110,E,038.1,270.0,021023,000.0,W*74
$GPGGA,092632.080,4051.161,N,01416.096,E,1,12,1.0,0.0,M,0.0,M,,*61
$GPGSA,A,3,01,02,03,04,05,06,07,08,09,10,11,12,1.0,1.0,1.0*30
$GPRMC,092632.080,A,4051.161,N,01416.096,E,038.3,265.9,021023,000.0,W*77
$GPGGA,092633.080,4051.160,N,01416.082,E,1,12,1.0,0.0,M,0.0,M,,*64
$GPGSA,A,3,01,02,03,04,05,06,07,08,09,10,11,12,1.0,1.0,1.0*30
$GPRMC,092633.080,A,4051.160,N,01416.082,E,040.9,270.0,021023,000.0,W*7A
$GPGGA,092634.080,4051.160,N,01416.067,E,1,12,1.0,0.0,M,0.0,M,,*68
$GPGSA,A,3,01,02,03,04,05,06,07,08,09,10,11,12,1.0,1.0,1.0*30
$GPRMC,092634.080,A,4051.160,N,01416.067,E,038.3,265.9,021023,000.0,W*7E
$GPGGA,092635.080,4051.159,N,01416.053,E,1,12,1.0,0.0,M,0.0,M,,*64
$GPGSA,A,3,01,02,03,04,05,06,07,08,09,10,11,12,1.0,1.0,1.0*30
$GPRMC,092635.080,A,4051.159,N,01416.053,E,038.1,270.0,021023,000.0,W*7D
$GPGGA,092636.080,4051.159,N,01416.039,E,1,12,1.0,0.0,M,0.0,M,,*6B
$GPGSA,A,3,01,02,03,04,05,06,07,08,09,10,11,12,1.0,1.0,1.0*30
$GPRMC,092636.080,A,4051.159,N,01416.039,E,038.3,265.9,021023,000.0,W*7D
$GPGGA,092637.080,4051.158,N,01416.025,E,1,12,1.0,0.0,M,0.0,M,,*66
$GPGSA,A,3,01,02,03,04,05,06,07,08,09,10,11,12,1.0,1.0,1.0*30
$GPRMC,092637.080,A,4051.158,N,01416.025,E,040.9,270.0,021023,000.0,W*78
$GPGGA,092638.080,4051.158,N,01416.010,E,1,12,1.0,0.0,M,0.0,M,,*6F
$GPGSA,A,3,01,02,03,04,05,06,07,08,09,10,11,12,1.0,1.0,1.0*30
$GPRMC,092638.080,A,4051.158,N,01416.010,E,038.3,265.9,021023,000.0,W*79
$GPGGA,092639.080,4051.157,N,01415.996,E,1,12,1.0,0.0,M,0.0,M,,*65
$GPGSA,A,3,01,02,03,04,05,06,07,08,09,10,11,12,1.0,1.0,1.0*30
$GPRMC,092639.080,A,4051.157,N,01415.996,E,038.1,270.0,021023,000.0,W*7C
$GPGGA,092640.080,4051.157,N,01415.982,E,1,12,1.0,0.0,M,0.0,M,,*6E
$GPGSA,A,3,01,02,03,04,05,06,07,08,09,10,11,12,1.0,1.0,1.0*30
$GPRMC,092640.080,A,4051.157,N,01415.982,E,038.3,265.9,021023,000.0,W*78
$GPGGA,092641.080,4051.156,N,01415.968,E,1,12,1.0,0.0,M,0.0,M,,*6A
$GPGSA,A,3,01,02,03,04,05,06,07,08,09,10,11,12,1.0,1.0,1.0*30
$GPRMC,092641.080,A,4051.156,N,01415.968,E,040.9,270.0,021023,000.0,W*74
$GPGGA,092642.080,4051.156,N,01415.953,E,1,12,1.0,0.0,M,0.0,M,,*61
$GPGSA,A,3,01,02,03,04,05,06,07,08,09,10,11,12,1.0,1.0,1.0*30
$GPRMC,092642.080,A,4051.156,N,01415.953,E,038.3,265.9,021023,000.0,W*77
$GPGGA,092643.080,4051.155,N,01415.939,E,1,12,1.0,0.0,M,0.0,M,,*6F
$GPGSA,A,3,01,02,03,04,05,06,07,08,09,10,11,12,1.0,1.0,1.0*30
$GPRMC,092643.080,A,4051.155,N,01415.939,E,038.1,270.0,021023,000.0,W*76
$GPGGA,092644.080,4051.155,N,01415.925,E,1,12,1.0,0.0,M,0.0,M,,*65
$GPGSA,A,3,01,02,03,04,05,06,07,08,09,10,11,12,1.0,1.0,1.0*30
$GPRMC,092644.080,A,4051.155,N,01415.925,E,038.3,265.9,021023,000.0,W*73
$GPGGA,092645.080,4051.154,N,01415.911,E,1,12,1.0,0.0,M,0.0,M,,*62
$GPGSA,A,3,01,02,03,04,05,06,07,08,09,10,11,12,1.0,1.0,1.0*30
$GPRMC,092645.080,A,4051.154,N,01415.911,E,040.9,270.0,021023,000.0,W*7C
$GPGGA,092646.080,4051.154,N,01415.896,E,1,12,1.0,0.0,M,0.0,M,,*6F
$GPGSA,A,3,01,02,03,04,05,06,07,08,09,10,11,12,1.0,1.0,1.0*30
$GPRMC,092646.080,A,4051.154,N,01415.896,E,038.3,265.9,021023,000.0,W*79
$GPGGA,092647.080,4051.153,N,01415.882,E,1,12,1.0,0.0,M,0.0,M,,*6C
$GPGSA,A,3,01,02,03,04,05,06,07,08,09,10,11,12,1.0,1.0,1.0*30
$GPRMC,092647.080,A,4051.153,N,01415.882,E,038.1,270.0,021023,000.0,W*75
$GPGGA,092648.080,4051.153,N,01415.868,E,1,12,1.0,0.0,M,0.0,M,,*67
$GPGSA,A,3,01,02,03,04,05,06,07,08,09,10,11,12,1.0,1.0,1.0*30
$GPRMC,092648.080,A,4051.153,N,01415.868,E,038.3,265.9,021023,000.0,W*71
$GPGGA,092649.080,4051.152,N,01415.854,E,1,12,1.0,0.0,M,0.0,M,,*68
$GPGSA,A,3,01,02,03,04,05,06,07,08,09,10,11,12,1.0,1.0,1.0*30
$GPRMC,092649.080,A,4051.152,N,01415.854,E,040.9,270.0,021023,000.0,W*76
$GPGGA,092650.080,4051.152,N,01415.839,E,1,12,1.0,0.0,M,0.0,M,,*6B
$GPGSA,A,3,01,02,03,04,05,06,07,08,09,10,11,12,1.0,1.0,1.0*30
$GPRMC,092650.080,A,4051.152,N,01415.839,E,038.3,265.9,021023,000.0,W*7D
$GPGGA,092651.080,4051.151,N,01415.825,E,1,12,1.0,0.0,M,0.0,M,,*64
$GPGSA,A,3,01,02,03,04,05,06,07,08,09,10,11,12,1.0,1.0,1.0*30
$GPRMC,092651.080,A,4051.151,N,01415.825,E,038.3,265.9,021023,000.0,W*72
$GPGGA,092652.080,4051.150,N,01415.811,E,1,12,1.0,0.0,M,0.0,M,,*61
$GPGSA,A,3,01,02,03,04,05,06,07,08,09,10,11,12,1.0,1.0,1.0*30
$GPRMC,092652.080,A,4051.150,N,01415.811,E,038.1,270.0,021023,000.0,W*78
$GPGGA,092653.080,4051.150,N,01415.797,E,1,12,1.0,0.0,M,0.0,M,,*61
$GPGSA,A,3,01,02,03,04,05,06,07,08,09,10,11,12,1.0,1.0,1.0*30
$GPRMC,092653.080,A,4051.150,N,01415.797,E,041.0,266.2,021023,000.0,W*72
$GPGGA,092654.080,4051.149,N,01415.782,E,1,12,1.0,0.0,M,0.0,M,,*6A
$GPGSA,A,3,01,02,03,04,05,06,07,08,09,10,11,12,1.0,1.0,1.0*30
$GPRMC,092654.080,A,4051.149,N,01415.782,E,038.1,270.0,021023,000.0,W*73
$GPGGA,092655.080,4051.149,N,01415.768,E,1,12,1.0,0.0,M,0.0,M,,*6F
$GPGSA,A,3,01,02,03,04,05,06,07,08,09,10,11,12,1.0,1.0,1.0*30
$GPRMC,092655.080,A,4051.149,N,01415.768,E,038.3,265.9,021023,000.0,W*79
$GPGGA,092656.080,4051.148,N,01415.754,E,1,12,1.0,0.0,M,0.0,M,,*62
$GPGSA,A,3,01,02,03,04,05,06,07,08,09,10,11,12,1.0,1.0,1.0*30
$GPRMC,092656.080,A,4051.148,N,01415.754,E,038.1,270.0,021023,000.0,W*7B
$GPGGA,092657.080,4051.148,N,01415.740,E,1,12,1.0,0.0,M,0.0,M,,*66
$GPGSA,A,3,01,02,03,04,05,06,07,08,09,10,11,12,1.0,1.0,1.0*30
$GPRMC,092657.080,A,4051.148,N,01415.740,E,041.0,266.2,021023,000.0,W*75
$GPGGA,092658.080,4051.147,N,01415.725,E,1,12,1.0,0.0,M,0.0,M,,*65
$GPGSA,A,3,01,02,03,04,05,06,07,08,09,10,11,12,1.0,1.0,1.0*30
$GPRMC,092658.080,A,4051.147,N,01415.725,E,038.1,270.0,021023,000.0,W*7C
$GPGGA,092659.080,4051.147,N,01415.711,E,1,12,1.0,0.0,M,0.0,M,,*63
$GPGSA,A,3,01,02,03,04,05,06,07,08,09,10,11,12,1.0,1.0,1.0*30
$GPRMC,092659.080,A,4051.147,N,01415.711,E,038.3,265.9,021023,000.0,W*75
$GPGGA,092700.080,4051.146,N,01415.697,E,1,12,1.0,0.0,M,0.0,M,,*60
$GPGSA,A,3,01,02,03,04,05,06,07,08,09,10,11,12,1.0,1.0,1.0*30
$GPRMC,092700.080,A,4051.146,N,01415.697,E,038.1,270.0,021023,000.0,W*79
$GPGGA,092701.080,4051.146,N,01415.683,E,1,12,1.0,0.0,M,0.0,M,,*64
$GPGSA,A,3,01,02,03,04,05,06,07,08,09,10,11,12,1.0,1.0,1.0*30
$GPRMC,092701.080,A,4051.146,N,01415.683,E,041.0,266.2,021023,000.0,W*77
$GPGGA,092702.080,4051.145,N,01415.668,E,1,12,1.0,0.0,M,0.0,M,,*61
$GPGSA,A,3,01,02,03,04,05,06,07,08,09,10,11,12,1.0,1.0,1.0*30
$GPRMC,092702.080,A,4051.145,N,01415.668,E,038.1,270.0,021023,000.0,W*78
$GPGGA,092703.080,4051.145,N,01415.654,E,1,12,1.0,0.0,M,0.0,M,,*6F
$GPGSA,A,3,01,02,03,04,05,06,07,08,09,10,11,12,1.0,1.0,1.0*30
$GPRMC,092703.080,A,4051.145,N,01415.654,E,038.3,265.9,021023,000.0,W*79
$GPGGA,092704.080,4051.144,N,01415.640,E,1,12,1.0,0.0,M,0.0,M,,*6C
$GPGSA,A,3,01,02,03,04,05,06,07,08,09,10,11,12,1.0,1.0,1.0*30
$GPRMC,092704.080,A,4051.144,N,01415.640,E,038.1,270.0,021023,000.0,W*75
$GPGGA,092705.080,4051.144,N,01415.626,E,1,12,1.0,0.0,M,0.0,M,,*6D
$GPGSA,A,3,01,02,03,04,05,06,07,08,09,10,11,12,1.0,1.0,1.0*30
$GPRMC,092705.080,A,4051.144,N,01415.626,E,041.0,266.2,021023,000.0,W*7E
$GPGGA,092706.080,4051.143,N,01415.611,E,1,12,1.0,0.0,M,0.0,M,,*6D
$GPGSA,A,3,01,02,03,04,05,06,07,08,09,10,11,12,1.0,1.0,1.0*30
$GPRMC,092706.080,A,4051.143,N,01415.611,E,038.1,270.0,021023,000.0,W*74
$GPGGA,092707.080,4051.143,N,01415.597,E,1,12,1.0,0.0,M,0.0,M,,*61
$GPGSA,A,3,01,02,03,04,05,06,07,08,09,10,11,12,1.0,1.0,1.0*30
$GPRMC,092707.080,A,4051.143,N,01415.597,E,038.3,265.9,021023,000.0,W*77
$GPGGA,092708.080,4051.142,N,01415.583,E,1,12,1.0,0.0,M,0.0,M,,*6A
$GPGSA,A,3,01,02,03,04,05,06,07,08,09,10,11,12,1.0,1.0,1.0*30
$GPRMC,092708.080,A,4051.142,N,01415.583,E,038.1,270.0,021023,000.0,W*73
$GPGGA,092709.080,4051.142,N,01415.569,E,1,12,1.0,0.0,M,0.0,M,,*6F
$GPGSA,A,3,01,02,03,04,05,06,07,08,09,10,11,12,1.0,1.0,1.0*30
$GPRMC,092709.080,A,4051.142,N,01415.569,E,041.0,266.2,021023,000.0,W*7C
$GPGGA,092710.080,4051.141,N,01415.554,E,1,12,1.0,0.0,M,0.0,M,,*6A
$GPGSA,A,3,01,02,03,04,05,06,07,08,09,10,11,12,1.0,1.0,1.0*30
$GPRMC,092710.080,A,4051.141,N,01415.554,E,038.3,265.9,021023,000.0,W*7C
$GPGGA,092711.080,4051.140,N,01415.540,E,1,12,1.0,0.0,M,0.0,M,,*6F
$GPGSA,A,3,01,02,03,04,05,06,07,08,09,10,11,12,1.0,1.0,1.0*30
$GPRMC,092711.080,A,4051.140,N,01415.540,E,038.1,270.0,021023,000.0,W*76
$GPGGA,092712.080,4051.140,N,01415.526,E,1,12,1.0,0.0,M,0.0,M,,*6C
$GPGSA,A,3,01,02,03,04,05,06,07,08,09,10,11,12,1.0,1.0,1.0*30
$GPRMC,092712.080,A,4051.140,N,01415.526,E,038.3,265.9,021023,000.0,W*7A
$GPGGA,092713.080,4051.139,N,01415.512,E,1,12,1.0,0.0,M,0.0,M,,*64
$GPGSA,A,3,01,02,03,04,05,06,07,08,09,10,11,12,1.0,1.0,1.0*30
$GPRMC,092713.080,A,4051.139,N,01415.512,E,040.9,270.0,021023,000.0,W*7A
$GPGGA,092714.080,4051.139,N,01415.497,E,1,12,1.0,0.0,M,0.0,M,,*6F
$GPGSA,A,3,01,02,03,04,05,06,07,08,09,10,11,12,1.0,1.0,1.0*30
$GPRMC,092714.080,A,4051.139,N,01415.497,E,038.3,265.9,021023,000.0,W*79
$GPGGA,092715.080,4051.138,N,01415.483,E,1,12,1.0,0.0,M,0.0,M,,*6A
$GPGSA,A,3,01,02,03,04,05,06,07,08,09,10,11,12,1.0,1.0,1.0*30
$GPRMC,092715.080,A,4051.138,N,01415.483,E,038.1,270.0,021023,000.0,W*73
$GPGGA,092716.080,4051.138,N,01415.469,E,1,12,1.0,0.0,M,0.0,M,,*6D
$GPGSA,A,3,01,02,03,04,05,06,07,08,09,10,11,12,1.0,1.0,1.0*30
$GPRMC,092716.080,A,4051.138,N,01415.469,E,038.3,265.9,021023,000.0,W*7B
$GPGGA,092717.080,4051.137,N,01415.455,E,1,12,1.0,0.0,M,0.0,M,,*6C
$GPGSA,A,3,01,02,03,04,05,06,07,08,09,10,11,12,1.0,1.0,1.0*30
$GPRMC,092717.080,A,4051.137,N,01415.455,E,040.9,270.0,021023,000.0,W*72
$GPGGA,092718.080,4051.137,N,01415.440,E,1,12,1.0,0.0,M,0.0,M,,*67
$GPGSA,A,3,01,02,03,04,05,06,07,08,09,10,11,12,1.0,1.0,1.0*30
$GPRMC,092718.080,A,4051.137,N,01415.440,E,038.3,265.9,021023,000.0,W*71
$GPGGA,092719.080,4051.136,N,01415.426,E,1,12,1.0,0.0,M,0.0,M,,*67
$GPGSA,A,3,01,02,03,04,05,06,07,08,09,10,11,12,1.0,1.0,1.0*30
$GPRMC,092719.080,A,4051.136,N,01415.426,E,038.1,270.0,021023,000.0,W*7E
$GPGGA,092720.080,4051.136,N,01415.412,E,1,12,1.0,0.0,M,0.0,M,,*6A
$GPGSA,A,3,01,02,03,04,05,06,07,08,09,10,11,12,1.0,1.0,1.0*30
$GPRMC,092720.080,A,4051.136,N,01415.412,E,038.3,265.9,021023,000.0,W*7C
$GPGGA,092721.080,4051.135,N,01415.398,E,1,12,1.0,0.0,M,0.0,M,,*6D
$GPGSA,A,3,01,02,03,04,05,06,07,08,09,10,11,12,1.0,1.0,1.0*30
$GPRMC,092721.080,A,4051.135,N,01415.398,E,040.9,270.0,021023,000.0,W*73
$GPGGA,092722.080,4051.135,N,01415.383,E,1,12,1.0,0.0,M,0.0,M,,*64
$GPGSA,A,3,01,02,03,04,05,06,07,08,09,10,11,12,1.0,1.0,1.0*30
$GPRMC,092722.080,A,4051.135,N,01415.383,E,038.3,265.9,021023,000.0,W*72
$GPGGA,092723.080,4051.134,N,01415.369,E,1,12,1.0,0.0,M,0.0,M,,*60
$GPGSA,A,3,01,02,03,04,05,06,07,08,09,10,11,12,1.0,1.0,1.0*30
$GPRMC,092723.080,A,4051.134,N,01415.369,E,038.1,270.0,021023,000.0,W*79
$GPGGA,092724.080,4051.134,N,01415.355,E,1,12,1.0,0.0,M,0.0,M,,*68
$GPGSA,A,3,01,02,03,04,05,06,07,08,09,10,11,12,1.0,1.0,1.0*30
$GPRMC,092724.080,A,4051.134,N,01415.355,E,038.3,265.9,021023,000.0,W*7E
$GPGGA,092725.080,4051.133,N,01415.341,E,1,12,1.0,0.0,M,0.0,M,,*6B
$GPGSA,A,3,01,02,03,04,05,06,07,08,09,10,11,12,1.0,1.0,1.0*30
$GPRMC,092725.080,A,4051.133,N,01415.341,E,040.9,270.0,021023,000.0,W*75
$GPGGA,092726.080,4051.133,N,01415.326,E,1,12,1.0,0.0,M,0.0,M,,*69
$GPGSA,A,3,01,02,03,04,05,06,07,08,09,10,11,12,1.0,1.0,1.0*30
$GPRMC,092726.080,A,4051.133,N,01415.326,E,038.3,265.9,021023,000.0,W*7F
$GPGGA,092727.080,4051.132,N,01415.312,E,1,12,1.0,0.0,M,0.0,M,,*6E
$GPGSA,A,3,01,02,03,04,05,06,07,08,09,10,11,12,1.0,1.0,1.0*30
$GPRMC,092727.080,A,4051.132,N,01415.312,E,038.1,270.0,021023,000.0,W*77
$GPGGA,092728.080,4051.132,N,01415.298,E,1,12,1.0,0.0,M,0.0,M,,*62
$GPGSA,A,3,01,02,03,04,05,06,07,08,09,10,11,12,1.0,1.0,1.0*30
$GPRMC,092728.080,A,4051.132,N,01415.298,E,038.3,265.9,021023,000.0,W*74
$GPGGA,092729.080,4051.131,N,01415.284,E,1,12,1.0,0.0,M,0.0,M,,*6D
$GPGSA,A,3,01,02,03,04,05,06,07,08,09,10,11,12,1.0,1.0,1.0*30
$GPRMC,092729.080,A,4051.131,N,01415.284,E,041.0,266.2,021023,000.0,W*7E
$GPGGA,092730.080,4051.130,N,01415.269,E,1,12,1.0,0.0,M,0.0,M,,*67
$GPGSA,A,3,01,02,03,04,05,06,07,08,09,10,11,12,1.0,1.0,1.0*30
$GPRMC,092730.080,A,4051.130,N,01415.269,E,038.1,270.0,021023,000.0,W*7E
$GPGGA,092731.080,4051.130,N,01415.255,E,1,12,1.0,0.0,M,0.0,M,,*69
$GPGSA,A,3,01,02,03,04,05,06,07,08,09,10,11,12,1.0,1.0,1.0*30
$GPRMC,092731.080,A,4051.130,N,01415.255,E,038.3,265.9,021023,000.0,W*7F
$GPGGA,092732.080,4051.129,N,01415.241,E,1,12,1.0,0.0,M,0.0,M,,*67
$GPGSA,A,3,01,02,03,04,05,06,07,08,09,10,11,12,1.0,1.0,1.0*30
$GPRMC,092732.080,A,4051.129,N,01415.241,E,038.1,270.0,021023,000.0,W*7E
$GPGGA,092733.080,4051.129,N,01415.227,E,1,12,1.0,0.0,M,0.0,M,,*66
$GPGSA,A,3,01,02,03,04,05,06,07,08,09,10,11,12,1.0,1.0,1.0*30
$GPRMC,092733.080,A,4051.129,N,01415.227,E,041.0,266.2,021023,000.0,W*75
$GPGGA,092734.080,4051.128,N,01415.212,E,1,12,1.0,0.0,M,0.0,M,,*66
$GPGSA,A,3,01,02,03,04,05,06,07,08,09,10,11,12,1.0,1.0,1.0*30
$GPRMC,092734.080,A,4051.128,N,01415.212,E,038.1,270.0,021023,000.0,W*7F
$GPGGA,092735.080,4051.128,N,01415.198,E,1,12,1.0,0.0,M,0.0,M,,*66
$GPGSA,A,3,01,02,03,04,05,06,07,08,09,10,11,12,1.0,1.0,1.0*30
$GPRMC,092735.080,A,4051.128,N,01415.198,E,038.3,265.9,021023,000.0,W*70
$GPGGA,092736.080,4051.127,N,01415.184,E,1,12,1.0,0.0,M,0.0,M,,*67
$GPGSA,A,3,01,02,03,04,05,06,07,08,09,10,11,12,1.0,1.0,1.0*30
$GPRMC,092736.080,A,4051.127,N,01415.184,E,040.9,270.0,021023,000.0,W*79
$GPGGA,092737.080,4051.127,N,01415.169,E,1,12,1.0,0.0,M,0.0,M,,*65
$GPGSA,A,3,01,02,03,04,05,06,07,08,09,10,11,12,1.0,1.0,1.0*30
$GPRMC,092737.080,A,4051.127,N,01415.169,E,038.3,265.9,021023,000.0,W*73
$GPGGA,092738.080,4051.126,N,01415.155,E,1,12,1.0,0.0,M,0.0,M,,*64
$GPGSA,A,3,01,02,03,04,05,06,07,08,09,10,11,12,1.0,1.0,1.0*30
$GPRMC,092738.080,A,4051.126,N,01415.155,E,038.1,270.0,021023,000.0,W*7D
$GPGGA,092739.080,4051.126,N,01415.141,E,1,12,1.0,0.0,M,0.0,M,,*60
$GPGSA,A,3,01,02,03,04,05,06,07,08,09,10,11,12,1.0,1.0,1.0*30
$GPRMC,092739.080,A,4051.126,N,01415.141,E,038.3,265.9,021023,000.0,W*76
$GPGGA,092740.080,4051.125,N,01415.127,E,1,12,1.0,0.0,M,0.0,M,,*6D
$GPGSA,A,3,01,02,03,04,05,06,07,08,09,10,11,12,1.0,1.0,1.0*30
$GPRMC,092740.080,A,4051.125,N,01415.127,E,040.9,270.0,021023,000.0,W*73
$GPGGA,092741.080,4051.125,N,01415.112,E,1,12,1.0,0.0,M,0.0,M,,*6A
$GPGSA,A,3,01,02,03,04,05,06,07,08,09,10,11,12,1.0,1.0,1.0*30
$GPRMC,092741.080,A,4051.125,N,01415.112,E,038.3,265.9,021023,000.0,W*7C
$GPGGA,092742.080,4051.124,N,01415.098,E,1,12,1.0,0.0,M,0.0,M,,*6B
$GPGSA,A,3,01,02,03,04,05,06,07,08,09,10,11,12,1.0,1.0,1.0*30
$GPRMC,092742.080,A,4051.124,N,01415.098,E,038.1,270.0,021023,000.0,W*72
$GPGGA,092743.080,4051.124,N,01415.084,E,1,12,1.0,0.0,M,0.0,M,,*67
$GPGSA,A,3,01,02,03,04,05,06,07,08,09,10,11,12,1.0,1.0,1.0*30
$GPRMC,092743.080,A,4051.124,N,01415.084,E,038.3,265.9,021023,000.0,W*71
$GPGGA,092744.080,4051.123,N,01415.070,E,1,12,1.0,0.0,M,0.0,M,,*6C
$GPGSA,A,3,01,02,03,04,05,06,07,08,09,10,11,12,1.0,1.0,1.0*30
$GPRMC,092744.080,A,4051.123,N,01415.070,E,040.9,270.0,021023,000.0,W*72
$GPGGA,092745.080,4051.123,N,01415.055,E,1,12,1.0,0.0,M,0.0,M,,*6A
$GPGSA,A,3,01,02,03,04,05,06,07,08,09,10,11,12,1.0,1.0,1.0*30
$GPRMC,092745.080,A,4051.123,N,01415.055,E,038.3,265.9,021023,000.0,W*7C
$GPGGA,092746.080,4051.122,N,01415.041,E,1,12,1.0,0.0,M,0.0,M,,*6D
$GPGSA,A,3,01,02,03,04,05,06,07,08,09,10,11,12,1.0,1.0,1.0*30
$GPRMC,092746.080,A,4051.122,N,01415.041,E,038.1,270.0,021023,000.0,W*74
$GPGGA,092747.080,4051.122,N,01415.027,E,1,12,1.0,0.0,M,0.0,M,,*6C
$GPGSA,A,3,01,02,03,04,05,06,07,08,09,10,11,12,1.0,1.0,1.0*30
$GPRMC,092747.080,A,4051.122,N,01415.027,E,038.3,265.9,021023,000.0,W*7A
$GPGGA,092748.080,4051.121,N,01415.013,E,1,12,1.0,0.0,M,0.0,M,,*67
$GPGSA,A,3,01,02,03,04,05,06,07,08,09,10,11,12,1.0,1.0,1.0*30
$GPRMC,092748.080,A,4051.121,N,01415.013,E,041.0,266.2,021023,000.0,W*74
$GPGGA,092749.080,4051.120,N,01414.998,E,1,12,1.0,0.0,M,0.0,M,,*6C
$GPGSA,A,3,01,02,03,04,05,06,07,08,09,10,11,12,1.0,1.0,1.0*30
$GPRMC,092749.080,A,4051.120,N,01414.998,E,038.1,270.0,021023,000.0,W*75
$GPGGA,092750.080,4051.120,N,01414.984,E,1,12,1.0,0.0,M,0.0,M,,*69
$GPGSA,A,3,01,02,03,04,05,06,07,08,09,10,11,12,1.0,1.0,1.0*30
$GPRMC,092750.080,A,4051.120,N,01414.984,E,038.3,265.9,021023,000.0,W*7F
$GPGGA,092751.080,4051.119,N,01414.970,E,1,12,1.0,0.0,M,0.0,M,,*69
$GPGSA,A,3,01,02,03,04,05,06,07,08,09,10,11,12,1.0,1.0,1.0*30
$GPRMC,092751.080,A,4051.119,N,01414.970,E,038.1,270.0,021023,000.0,W*70
$GPGGA,092752.080,4051.119,N,01414.956,E,1,12,1.0,0.0,M,0.0,M,,*6E
$GPGSA,A,3,01,02,03,04,05,06,07,08,09,10,11,12,1.0,1.0,1.0*30
$GPRMC,092752.080,A,4051.119,N,01414.956,E,041.0,266.2,021023,000.0,W*7D
$GPGGA,092753.080,4051.118,N,01414.941,E,1,12,1.0,0.0,M,0.0,M,,*68
$GPGSA,A,3,01,02,03,04,05,06,07,08,09,10,11,12,1.0,1.0,1.0*30
$GPRMC,092753.080,A,4051.118,N,01414.941,E,038.1,270.0,021023,000.0,W*71
$GPGGA,092754.080,4051.118,N,01414.927,E,1,12,1.0,0.0,M,0.0,M,,*6F
$GPGSA,A,3,01,02,03,04,05,06,07,08,09,10,11,12,1.0,1.0,1.0*30
$GPRMC,092754.080,A,4051.118,N,01414.927,E,038.3,265.9,021023,000.0,W*79
$GPGGA,092755.080,4051.117,N,01414.913,E,1,12,1.0,0.0,M,0.0,M,,*66
$GPGSA,A,3,01,02,03,04,05,06,07,08,09,10,11,12,1.0,1.0,1.0*30
$GPRMC,092755.080,A,4051.117,N,01414.913,E,038.1,270.0,021023,000.0,W*7F
$GPGGA,092756.080,4051.117,N,01414.899,E,1,12,1.0,0.0,M,0.0,M,,*66
$GPGSA,A,3,01,02,03,04,05,06,07,08,09,10,11,12,1.0,1.0,1.0*30
$GPRMC,092756.080,A,4051.117,N,01414.899,E,041.0,266.2,021023,000.0,W*75
$GPGGA,092757.080,4051.116,N,01414.884,E,1,12,1.0,0.0,M,0.0,M,,*6A
$GPGSA,A,3,01,02,03,04,05,06,07,08,09,10,11,12,1.0,1.0,1.0*30
$GPRMC,092757.080,A,4051.116,N,01414.884,E,038.1,270.0,021023,000.0,W*73
$GPGGA,092758.080,4051.116,N,01414.870,E,1,12,1.0,0.0,M,0.0,M,,*6E
$GPGSA,A,3,01,02,03,04,05,06,07,08,09,10,11,12,1.0,1.0,1.0*30
$GPRMC,092758.080,A,4051.116,N,01414.870,E,038.3,265.9,021023,000.0,W*78
$GPGGA,092759.080,4051.115,N,01414.856,E,1,12,1.0,0.0,M,0.0,M,,*68
$GPGSA,A,3,01,02,03,04,05,06,07,08,09,10,11,12,1.0,1.0,1.0*30
$GPRMC,092759.080,A,4051.115,N,01414.856,E,038.1,270.0,021023,000.0,W*71
$GPGGA,092800.080,4051.115,N,01414.842,E,1,12,1.0,0.0,M,0.0,M,,*6E
$GPGSA,A,3,01,02,03,04,05,06,07,08,09,10,11,12,1.0,1.0,1.0*30
$GPRMC,092800.080,A,4051.115,N,01414.842,E,041.0,266.2,021023,000.0,W*7D
$GPGGA,092801.080,4051.114,N,01414.827,E,1,12,1.0,0.0,M,0.0,M,,*6D
$GPGSA,A,3,01,02,03,04,05,06,07,08,09,10,11,12,1.0,1.0,1.0*30
$GPRMC,092801.080,A,4051.114,N,01414.827,E,038.1,270.0,021023,000.0,W*74
$GPGGA,092802.080,4051.114,N,01414.813,E,1,12,1.0,0.0,M,0.0,M,,*69
$GPGSA,A,3,01,02,03,04,05,06,07,08,09,10,11,12,1.0,1.0,1.0*30
$GPRMC,092802.080,A,4051.114,N,01414.813,E,038.3,265.9,021023,000.0,W*7F
$GPGGA,092803.080,4051.113,N,01414.799,E,1,12,1.0,0.0,M,0.0,M,,*62
$GPGSA,A,3,01,02,03,04,05,06,07,08,09,10,11,12,1.0,1.0,1.0*30
$GPRMC,092803.080,A,4051.113,N,01414.799,E,038.1,270.0,021023,000.0,W*7B
$GPGGA,092804.080,4051.113,N,01414.785,E,1,12,1.0,0.0,M,0.0,M,,*68
$GPGSA,A,3,01,02,03,04,05,06,07,08,09,10,11,12,1.0,1.0,1.0*30
$GPRMC,092804.080,A,4051.113,N,01414.785,E,041.0,266.2,021023,000.0,W*7B
$GPGGA,092805.080,4051.112,N,01414.770,E,1,12,1.0,0.0,M,0.0,M,,*62
$GPGSA,A,3,01,02,03,04,05,06,07,08,09,10,11,12,1.0,1.0,1.0*30
$GPRMC,092805.080,A,4051.112,N,01414.770,E,038.1,270.0,021023,000.0,W*7B
$GPGGA,092806.080,4051.112,N,01414.756,E,1,12,1.0,0.0,M,0.0,M,,*65
$GPGSA,A,3,01,02,03,04,05,06,07,08,09,10,11,12,1.0,1.0,1.0*30
$GPRMC,092806.080,A,4051.112,N,01414.756,E,038.3,265.9,021023,000.0,W*73
$GPGGA,092807.080,4051.111,N,01414.742,E,1,12,1.0,0.0,M,0.0,M,,*62
$GPGSA,A,3,01,02,03,04,05,06,07,08,09,10,11,12,1.0,1.0,1.0*30
$GPRMC,092807.080,A,4051.111,N,01414.742,E,038.3,265.9,021023,000.0,W*74
$GPGGA,092808.080,4051.110,N,01414.728,E,1,12,1.0,0.0,M,0.0,M,,*60
$GPGSA,A,3,01,02,03,04,05,06,07,08,09,10,11,12,1.0,1.0,1.0*30
$GPRMC,092808.080,A,4051.110,N,01414.728,E,040.9,270.0,021023,000.0,W*7E
$GPGGA,092809.080,4051.110,N,01414.713,E,1,12,1.0,0.0,M,0.0,M,,*69
$GPGSA,A,3,01,02,03,04,05,06,07,08,09,10,11,12,1.0,1.0,1.0*30
$GPRMC,092809.080,A,4051.110,N,01414.713,E,038.3,265.9,021023,000.0,W*7F
$GPGGA,092810.080,4051.109,N,01414.699,E,1,12,1.0,0.0,M,0.0,M,,*6A
$GPGSA,A,3,01,02,03,04,05,06,07,08,09,10,11,12,1.0,1.0,1.0*30
$GPRMC,092810.080,A,4051.109,N,01414.699,E,038.1,270.0,021023,000.0,W*73
$GPGGA,092811.080,4051.109,N,01414.685,E,1,12,1.0,0.0,M,0.0,M,,*66
$GPGSA,A,3,01,02,03,04,05,06,07,08,09,10,11,12,1.0,1.0,1.0*30
$GPRMC,092811.080,A,4051.109,N,01414.685,E,038.3,265.9,021023,000.0,W*70
$GPGGA,092812.080,4051.108,N,01414.671,E,1,12,1.0,0.0,M,0.0,M,,*6F
$GPGSA,A,3,01,02,03,04,05,06,07,08,09,10,11,12,1.0,1.0,1.0*30
$GPRMC,092812.080,A,4051.108,N,01414.671,E,040.9,270.0,021023,000.0,W*71
$GPGGA,092813.080,4051.108,N,01414.656,E,1,12,1.0,0.0,M,0.0,M,,*6B
$GPGSA,A,3,01,02,03,04,05,06,07,08,09,10,11,12,1.0,1.0,1.0*30
$GPRMC,092813.080,A,4051.108,N,01414.656,E,038.3,265.9,021023,000.0,W*7D
$GPGGA,092814.080,4051.107,N,01414.642,E,1,12,1.0,0.0,M,0.0,M,,*66
$GPGSA,A,3,01,02,03,04,05,06,07,08,09,10,11,12,1.0,1.0,1.0*30
$GPRMC,092814.080,A,4051.107,N,01414.642,E,038.1,270.0,021023,000.0,W*7F
$GPGGA,092815.080,4051.107,N,01414.628,E,1,12,1.0,0.0,M,0.0,M,,*6B
$GPGSA,A,3,01,02,03,04,05,06,07,08,09,10,11,12,1.0,1.0,1.0*30
$GPRMC,092815.080,A,4051.107,N,01414.628,E,038.3,265.9,021023,000.0,W*7D
$GPGGA,092816.080,4051.106,N,01414.614,E,1,12,1.0,0.0,M,0.0,M,,*66
$GPGSA,A,3,01,02,03,04,05,06,07,08,09,10,11,12,1.0,1.0,1.0*30
$GPRMC,092816.080,A,4051.106,N,01414.614,E,040.9,270.0,021023,000.0,W*78
$GPGGA,092817.080,4051.106,N,01414.599,E,1,12,1.0,0.0,M,0.0,M,,*61
$GPGSA,A,3,01,02,03,04,05,06,07,08,09,10,11,12,1.0,1.0,1.0*30
$GPRMC,092817.080,A,4051.106,N,01414.599,E,038.3,265.9,021023,000.0,W*77
$GPGGA,092818.080,4051.105,N,01414.585,E,1,12,1.0,0.0,M,0.0,M,,*60
$GPGSA,A,3,01,02,03,04,05,06,07,08,09,10,11,12,1.0,1.0,1.0*30
$GPRMC,092818.080,A,4051.105,N,01414.585,E,038.1,270.0,021023,000.0,W*79
$GPGGA,092819.080,4051.105,N,01414.571,E,1,12,1.0,0.0,M,0.0,M,,*6A
$GPGSA,A,3,01,02,03,04,05,06,07,08,09,10,11,12,1.0,1.0,1.0*30
$GPRMC,092819.080,A,4051.105,N,01414.571,E,038.3,265.9,021023,000.0,W*7C
$GPGGA,092820.080,4051.104,N,01414.557,E,1,12,1.0,0.0,M,0.0,M,,*65
$GPGSA,A,3,01,02,03,04,05,06,07,08,09,10,11,12,1.0,1.0,1.0*30
$GPRMC,092820.080,A,4051.104,N,01414.557,E,039.7,248.9,021023,000.0,W*79
$GPGGA,092821.080,4051.099,N,01414.544,E,1,12,1.0,0.0,M,0.0,M,,*63
$GPGSA,A,3,01,02,03,04,05,06,07,08,09,10,11,12,1.0,1.0,1.0*30
$GPRMC,092821.080,A,4051.099,N,01414.544,E,039.2,243.4,021023,000.0,W*7C
$GPGGA,092822.080,4051.093,N,01414.532,E,1,12,1.0,0.0,M,0.0,M,,*6B
$GPGSA,A,3,01,02,03,04,05,06,07,08,09,10,11,12,1.0,1.0,1.0*30
$GPRMC,092822.080,A,4051.093,N,01414.532,E,037.3,247.3,021023,000.0,W*78
$GPGGA,092823.080,4051.088,N,01414.520,E,1,12,1.0,0.0,M,0.0,M,,*63
$GPGSA,A,3,01,02,03,04,05,06,07,08,09,10,11,12,1.0,1.0,1.0*30
$GPRMC,092823.080,A,4051.088,N,01414.520,E,039.2,243.4,021023,000.0,W*7C
$GPGGA,092824.080,4051.082,N,01414.508,E,1,12,1.0,0.0,M,0.0,M,,*64
$GPGSA,A,3,01,02,03,04,05,06,07,08,09,10,11,12,1.0,1.0,1.0*30
$GPRMC,092824.080,A,4051.082,N,01414.508,E,039.7,248.9,021023,000.0,W*78
$GPGGA,092825.080,4051.077,N,01414.495,E,1,12,1.0,0.0,M,0.0,M,,*6A
$GPGSA,A,3,01,02,03,04,05,06,07,08,09,10,11,12,1.0,1.0,1.0*30
$GPRMC,092825.080,A,4051.077,N,01414.495,E,039.2,243.4,021023,000.0,W*75
$GPGGA,092826.080,4051.071,N,01414.483,E,1,12,1.0,0.0,M,0.0,M,,*68
$GPGSA,A,3,01,02,03,04,05,06,07,08,09,10,11,12,1.0,1.0,1.0*30
$GPRMC,092826.080,A,4051.071,N,01414.483,E,037.3,247.3,021023,000.0,W*7B
$GPGGA,092827.080,4051.066,N,01414.471,E,1,12,1.0,0.0,M,0.0,M,,*62
$GPGSA,A,3,01,02,03,04,05,06,07,08,09,10,11,12,1.0,1.0,1.0*30
$GPRMC,092827.080,A,4051.066,N,01414.471,E,039.2,243.4,021023,000.0,W*7D
$GPGGA,092828.080,4051.060,N,01414.459,E,1,12,1.0,0.0,M,0.0,M,,*61
$GPGSA,A,3,01,02,03,04,05,06,07,08,09,10,11,12,1.0,1.0,1.0*30
$GPRMC,092828.080,A,4051.060,N,01414.459,E,039.7,248.9,021023,000.0,W*7D
$GPGGA,092829.080,4051.055,N,01414.446,E,1,12,1.0,0.0,M,0.0,M,,*68
$GPGSA,A,3,01,02,03,04,05,06,07,08,09,10,11,12,1.0,1.0,1.0*30
$GPRMC,092829.080,A,4051.055,N,01414.446,E,039.2,243.4,021023,000.0,W*77
$GPGGA,092830.080,4051.049,N,01414.434,E,1,12,1.0,0.0,M,0.0,M,,*68
$GPGSA,A,3,01,02,03,04,05,06,07,08,09,10,11,12,1.0,1.0,1.0*30
$GPRMC,092830.080,A,4051.049,N,01414.434,E,037.3,247.3,021023,000.0,W*7B
$GPGGA,092831.080,4051.044,N,01414.422,E,1,12,1.0,0.0,M,0.0,M,,*63
$GPGSA,A,3,01,02,03,04,05,06,07,08,09,10,11,12,1.0,1.0,1.0*30
$GPRMC,092831.080,A,4051.044,N,01414.422,E,041.5,245.2,021023,000.0,W*74
$GPGGA,092832.080,4051.038,N,01414.409,E,1,12,1.0,0.0,M,0.0,M,,*62
$GPGSA,A,3,01,02,03,04,05,06,07,08,09,10,11,12,1.0,1.0,1.0*30
$GPRMC,092832.080,A,4051.038,N,01414.409,E,037.3,247.3,021023,000.0,W*71
$GPGGA,092833.080,4051.033,N,01414.397,E,1,12,1.0,0.0,M,0.0,M,,*68
$GPGSA,A,3,01,02,03,04,05,06,07,08,09,10,11,12,1.0,1.0,1.0*30
$GPRMC,092833.080,A,4051.033,N,01414.397,E,039.2,243.4,021023,000.0,W*77
$GPGGA,092834.080,4051.027,N,01414.385,E,1,12,1.0,0.0,M,0.0,M,,*69
$GPGSA,A,3,01,02,03,04,05,06,07,08,09,10,11,12,1.0,1.0,1.0*30
$GPRMC,092834.080,A,4051.027,N,01414.385,E,037.3,247.3,021023,000.0,W*7A
$GPGGA,092835.080,4051.022,N,01414.373,E,1,12,1.0,0.0,M,0.0,M,,*64
$GPGSA,A,3,01,02,03,04,05,06,07,08,09,10,11,12,1.0,1.0,1.0*30
$GPRMC,092835.080,A,4051.022,N,01414.373,E,041.5,245.2,021023,000.0,W*73
$GPGGA,092836.080,4051.016,N,01414.360,E,1,12,1.0,0.0,M,0.0,M,,*62
$GPGSA,A,3,01,02,03,04,05,06,07,08,09,10,11,12,1.0,1.0,1.0*30
$GPRMC,092836.080,A,4051.016,N,01414.360,E,037.3,247.3,021023,000.0,W*71
$GPGGA,092837.080,4051.011,N,01414.348,E,1,12,1.0,0.0,M,0.0,M,,*6E
$GPGSA,A,3,01,02,03,04,05,06,07,08,09,10,11,12,1.0,1.0,1.0*30
$GPRMC,092837.080,A,4051.011,N,01414.348,E,039.2,243.4,021023,000.0,W*71
$GPGGA,092838.080,4051.005,N,01414.336,E,1,12,1.0,0.0,M,0.0,M,,*6D
$GPGSA,A,3,01,02,03,04,05,06,07,08,09,10,11,12,1.0,1.0,1.0*30
$GPRMC,092838.080,A,4051.005,N,01414.336,E,037.3,247.3,021023,000.0,W*7E
$GPGGA,092839.080,4051.000,N,01414.324,E,1,12,1.0,0.0,M,0.0,M,,*6A
$GPGSA,A,3,01,02,03,04,05,06,07,08,09,10,11,12,1.0,1.0,1.0*30
$GPRMC,092839.080,A,4051.000,N,01414.324,E,041.5,245.2,021023,000.0,W*7D
$GPGGA,092840.080,4050.994,N,01414.311,E,1,12,1.0,0.0,M,0.0,M,,*67
$GPGSA,A,3,01,02,03,04,05,06,07,08,09,10,11,12,1.0,1.0,1.0*30
$GPRMC,092840.080,A,4050.994,N,01414.311,E,037.3,247.3,021023,000.0,W*74
$GPGGA,092841.080,4050.989,N,01414.299,E,1,12,1.0,0.0,M,0.0,M,,*6B
$GPGSA,A,3,01,02,03,04,05,06,07,08,09,10,11,12,1.0,1.0,1.0*30
$GPRMC,092841.080,A,4050.989,N,01414.299,E,039.2,243.4,021023,000.0,W*74
$GPGGA,092842.080,4050.983,N,01414.287,E,1,12,1.0,0.0,M,0.0,M,,*6D
$GPGSA,A,3,01,02,03,04,05,06,07,08,09,10,11,12,1.0,1.0,1.0*30
$GPRMC,092842.080,A,4050.983,N,01414.287,E,039.7,248.9,021023,000.0,W*71
$GPGGA,092843.080,4050.978,N,01414.274,E,1,12,1.0,0.0,M,0.0,M,,*64
$GPGSA,A,3,01,02,03,04,05,06,07,08,09,10,11,12,1.0,1.0,1.0*30
$GPRMC,092843.080,A,4050.978,N,01414.274,E,039.2,243.4,021023,000.0,W*7B
$GPGGA,092844.080,4050.972,N,01414.262,E,1,12,1.0,0.0,M,0.0,M,,*6E
$GPGSA,A,3,01,02,03,04,05,06,07,08,09,10,11,12,1.0,1.0,1.0*30
$GPRMC,092844.080,A,4050.972,N,01414.262,E,037.3,247.3,021023,000.0,W*7D
$GPGGA,092845.080,4050.967,N,01414.250,E,1,12,1.0,0.0,M,0.0,M,,*6A
$GPGSA,A,3,01,02,03,04,05,06,07,08,09,10,11,12,1.0,1.0,1.0*30
$GPRMC,092845.080,A,4050.967,N,01414.250,E,039.2,243.4,021023,000.0,W*75
$GPGGA,092846.080,4050.961,N,01414.238,E,1,12,1.0,0.0,M,0.0,M,,*61
$GPGSA,A,3,01,02,03,04,05,06,07,08,09,10,11,12,1.0,1.0,1.0*30
$GPRMC,092846.080,A,4050.961,N,01414.238,E,039.7,248.9,021023,000.0,W*7D
$GPGGA,092847.080,4050.956,N,01414.225,E,1,12,1.0,0.0,M,0.0,M,,*68
$GPGSA,A,3,01,02,03,04,05,06,07,08,09,10,11,12,1.0,1.0,1.0*30
$GPRMC,092847.080,A,4050.956,N,01414.225,E,039.2,243.4,021023,000.0,W*77
$GPGGA,092848.080,4050.950,N,01414.213,E,1,12,1.0,0.0,M,0.0,M,,*64
$GPGSA,A,3,01,02,03,04,05,06,07,08,09,10,11,12,1.0,1.0,1.0*30
$GPRMC,092848.080,A,4050.950,N,01414.213,E,037.3,247.3,021023,000.0,W*77
$GPGGA,092849.080,4050.945,N,01414.201,E,1,12,1.0,0.0,M,0.0,M,,*62
$GPGSA,A,3,01,02,03,04,05,06,07,08,09,10,11,12,1.0,1.0,1.0*30
$GPRMC,092849.080,A,4050.945,N,01414.201,E,039.2,243.4,021023,000.0,W*7D
$GPGGA,092850.080,4050.939,N,01414.189,E,1,12,1.0,0.0,M,0.0,M,,*62
$GPGSA,A,3,01,02,03,04,05,06,07,08,09,10,11,12,1.0,1.0,1.0*30
$GPRMC,092850.080,A,4050.939,N,01414.189,E,039.7,248.9,021023,000.0,W*7E
$GPGGA,092851.080,4050.934,N,01414.176,E,1,12,1.0,0.0,M,0.0,M,,*6E
$GPGSA,A,3,01,02,03,04,05,06,07,08,09,10,11,12,1.0,1.0,1.0*30
$GPRMC,092851.080,A,4050.934,N,01414.176,E,039.2,243.4,021023,000.0,W*71
$GPGGA,092852.080,4050.928,N,01414.164,E,1,12,1.0,0.0,M,0.0,M,,*63
$GPGSA,A,3,01,02,03,04,05,06,07,08,09,10,11,12,1.0,1.0,1.0*30
$GPRMC,092852.080,A,4050.928,N,01414.164,E,037.3,247.3,021023,000.0,W*70
$GPGGA,092853.080,4050.923,N,01414.152,E,1,12,1.0,0.0,M,0.0,M,,*6C
$GPGSA,A,3,01,02,03,04,05,06,07,08,09,10,11,12,1.0,1.0,1.0*30
$GPRMC,092853.080,A,4050.923,N,01414.152,E,041.5,245.2,021023,000.0,W*7B
$GPGGA,092854.080,4050.917,N,01414.139,E,1,12,1.0,0.0,M,0.0,M,,*61
$GPGSA,A,3,01,02,03,04,05,06,07,08,09,10,11,12,1.0,1.0,1.0*30
$GPRMC,092854.080,A,4050.917,N,01414.139,E,037.3,247.3,021023,000.0,W*72
$GPGGA,092855.080,4050.912,N,01414.127,E,1,12,1.0,0.0,M,0.0,M,,*6A
$GPGSA,A,3,01,02,03,04,05,06,07,08,09,10,11,12,1.0,1.0,1.0*30
$GPRMC,092855.080,A,4050.912,N,01414.127,E,039.2,243.4,021023,000.0,W*75
$GPGGA,092856.080,4050.906,N,01414.115,E,1,12,1.0,0.0,M,0.0,M,,*6D
$GPGSA,A,3,01,02,03,04,05,06,07,08,09,10,11,12,1.0,1.0,1.0*30
$GPRMC,092856.080,A,4050.906,N,01414.115,E,037.3,247.3,021023,000.0,W*7E
$GPGGA,092857.080,4050.901,N,01414.103,E,1,12,1.0,0.0,M,0.0,M,,*6C
$GPGSA,A,3,01,02,03,04,05,06,07,08,09,10,11,12,1.0,1.0,1.0*30
$GPRMC,092857.080,A,4050.901,N,01414.103,E,041.5,245.2,021023,000.0,W*7B
$GPGGA,092858.080,4050.895,N,01414.090,E,1,12,1.0,0.0,M,0.0,M,,*64
$GPGSA,A,3,01,02,03,04,05,06,07,08,09,10,11,12,1.0,1.0,1.0*30
$GPRMC,092858.080,A,4050.895,N,01414.090,E,037.3,247.3,021023,000.0,W*77
$GPGGA,092859.080,4050.890,N,01414.078,E,1,12,1.0,0.0,M,0.0,M,,*66
$GPGSA,A,3,01,02,03,04,05,06,07,08,09,10,11,12,1.0,1.0,1.0*30
$GPRMC,092859.080,A,4050.890,N,01414.078,E,039.2,243.4,021023,000.0,W*79
$GPGGA,092900.080,4050.884,N,01414.066,E,1,12,1.0,0.0,M,0.0,M,,*61
$GPGSA,A,3,01,02,03,04,05,06,07,08,09,10,11,12,1.0,1.0,1.0*30
$GPRMC,092900.080,A,4050.884,N,01414.066,E,037.3,247.3,021023,000.0,W*72
$GPGGA,092901.080,4050.879,N,01414.054,E,1,12,1.0,0.0,M,0.0,M,,*63
$GPGSA,A,3,01,02,03,04,05,06,07,08,09,10,11,12,1.0,1.0,1.0*30
$GPRMC,092901.080,A,4050.879,N,01414.054,E,041.5,245.2,021023,000.0,W*74
$GPGGA,092902.080,4050.873,N,01414.041,E,1,12,1.0,0.0,M,0.0,M,,*6E
$GPGSA,A,3,01,02,03,04,05,06,07,08,09,10,11,12,1.0,1.0,1.0*30
$GPRMC,092902.080,A,4050.873,N,01414.041,E,037.3,247.3,021023,000.0,W*7D
$GPGGA,092903.080,4050.868,N,01414.029,E,1,12,1.0,0.0,M,0.0,M,,*6B
$GPGSA,A,3,01,02,03,04,05,06,07,08,09,10,11,12,1.0,1.0,1.0*30
$GPRMC,092903.080,A,4050.868,N,01414.029,E,039.2,243.4,021023,000.0,W*74
$GPGGA,092904.080,4050.862,N,01414.017,E,1,12,1.0,0.0,M,0.0,M,,*6B
$GPGSA,A,3,01,02,03,04,05,06,07,08,09,10,11,12,1.0,1.0,1.0*30
$GPRMC,092904.080,A,4050.862,N,01414.017,E,039.7,248.9,021023,000.0,W*77
$GPGGA,092905.080,4050.857,N,01414.004,E,1,12,1.0,0.0,M,0.0,M,,*6E
$GPGSA,A,3,01,02,03,04,05,06,07,08,09,10,11,12,1.0,1.0,1.0*30
$GPRMC,092905.080,A,4050.857,N,01414.004,E,039.2,243.4,021023,000.0,W*71
$GPGGA,092906.080,4050.851,N,01413.992,E,1,12,1.0,0.0,M,0.0,M,,*6A
$GPGSA,A,3,01,02,03,04,05,06,07,08,09,10,11,12,1.0,1.0,1.0*30
$GPRMC,092906.080,A,4050.851,N,01413.992,E,037.3,247.3,021023,000.0,W*79
$GPGGA,092907.080,4050.846,N,01413.980,E,1,12,1.0,0.0,M,0.0,M,,*6E
$GPGSA,A,3,01,02,03,04,05,06,07,08,09,10,11,12,1.0,1.0,1.0*30
$GPRMC,092907.080,A,4050.846,N,01413.980,E,039.2,243.4,021023,000.0,W*71
$GPGGA,092908.080,4050.840,N,01413.968,E,1,12,1.0,0.0,M,0.0,M,,*61
$GPGSA,A,3,01,02,03,04,05,06,07,08,09,10,11,12,1.0,1.0,1.0*30
$GPRMC,092908.080,A,4050.840,N,01413.968,E,039.7,248.9,021023,000.0,W*7D
$GPGGA,092909.080,4050.835,N,01413.955,E,1,12,1.0,0.0,M,0.0,M,,*6C
$GPGSA,A,3,01,02,03,04,05,06,07,08,09,10,11,12,1.0,1.0,1.0*30
$GPRMC,092909.080,A,4050.835,N,01413.955,E,039.2,243.4,021023,000.0,W*73
$GPGGA,092910.080,4050.829,N,01413.943,E,1,12,1.0,0.0,M,0.0,M,,*6E
$GPGSA,A,3,01,02,03,04,05,06,07,08,09,10,11,12,1.0,1.0,1.0*30
$GPRMC,092910.080,A,4050.829,N,01413.943,E,037.3,247.3,021023,000.0,W*7D
$GPGGA,092911.080,4050.824,N,01413.931,E,1,12,1.0,0.0,M,0.0,M,,*67
$GPGSA,A,3,01,02,03,04,05,06,07,08,09,10,11,12,1.0,1.0,1.0*30
$GPRMC,092911.080,A,4050.824,N,01413.931,E,039.2,243.4,021023,000.0,W*78
$GPGGA,092912.080,4050.818,N,01413.919,E,1,12,1.0,0.0,M,0.0,M,,*61
$GPGSA,A,3,01,02,03,04,05,06,07,08,09,10,11,12,1.0,1.0,1.0*30
$GPRMC,092912.080,A,4050.818,N,01413.919,E,039.7,248.9,021023,000.0,W*7D
$GPGGA,092913.080,4050.813,N,01413.906,E,1,12,1.0,0.0,M,0.0,M,,*65
$GPGSA,A,3,01,02,03,04,05,06,07,08,09,10,11,12,1.0,1.0,1.0*30
$GPRMC,092913.080,A,4050.813,N,01413.906,E,039.2,243.4,021023,000.0,W*7A
$GPGGA,092914.080,4050.807,N,01413.894,E,1,12,1.0,0.0,M,0.0,M,,*6D
$GPGSA,A,3,01,02,03,04,05,06,07,08,09,10,11,12,1.0,1.0,1.0*30
$GPRMC,092914.080,A,4050.807,N,01413.894,E,037.3,247.3,021023,000.0,W*7E
$GPGGA,092915.080,4050.802,N,01413.882,E,1,12,1.0,0.0,M,0.0,M,,*6E
$GPGSA,A,3,01,02,03,04,05,06,07,08,09,10,11,12,1.0,1.0,1.0*30
$GPRMC,092915.080,A,4050.802,N,01413.882,E,041.5,245.2,021023,000.0,W*79
$GPGGA,092916.080,4050.796,N,01413.869,E,1,12,1.0,0.0,M,0.0,M,,*6A
$GPGSA,A,3,01,02,03,04,05,06,07,08,09,10,11,12,1.0,1.0,1.0*30
$GPRMC,092916.080,A,4050.796,N,01413.869,E,039.2,243.4,021023,000.0,W*75
$GPGGA,092917.080,4050.790,N,01413.857,E,1,12,1.0,0.0,M,0.0,M,,*60
$GPGSA,A,3,01,02,03,04,05,06,07,08,09,10,11,12,1.0,1.0,1.0*30
$GPRMC,092917.080,A,4050.790,N,01413.857,E,037.3,247.3,021023,000.0,W*73
$GPGGA,092918.080,4050.785,N,01413.845,E,1,12,1.0,0.0,M,0.0,M,,*68
$GPGSA,A,3,01,02,03,04,05,06,07,08,09,10,11,12,1.0,1.0,1.0*30
$GPRMC,092918.080,A,4050.785,N,01413.845,E,039.2,243.4,021023,000.0,W*77
$GPGGA,092919.080,4050.779,N,01413.833,E,1,12,1.0,0.0,M,0.0,M,,*6B
$GPGSA,A,3,01,02,03,04,05,06,07,08,09,10,11,12,1.0,1.0,1.0*30
$GPRMC,092919.080,A,4050.779,N,01413.833,E,039.7,248.9,021023,000.0,W*77
$GPGGA,092920.080,4050.774,N,01413.820,E,1,12,1.0,0.0,M,0.0,M,,*6E
$GPGSA,A,3,01,02,03,04,05,06,07,08,09,10,11,12,1.0,1.0,1.0*30
$GPRMC,092920.080,A,4050.774,N,01413.820,E,039.2,243.4,021023,000.0,W*71
$GPGGA,092921.080,4050.768,N,01413.808,E,1,12,1.0,0.0,M,0.0,M,,*68
$GPGSA,A,3,01,02,03,04,05,06,07,08,09,10,11,12,1.0,1.0,1.0*30
$GPRMC,092921.080,A,4050.768,N,01413.808,E,037.3,247.3,021023,000.0,W*7B
$GPGGA,092922.080,4050.763,N,01413.796,E,1,12,1.0,0.0,M,0.0,M,,*68
$GPGSA,A,3,01,02,03,04,05,06,07,08,09,10,11,12,1.0,1.0,1.0*30
$GPRMC,092922.080,A,4050.763,N,01413.796,E,039.2,243.4,021023,000.0,W*77
$GPGGA,092923.080,4050.757,N,01413.784,E,1,12,1.0,0.0,M,0.0,M,,*6D
$GPGSA,A,3,01,02,03,04,05,06,07,08,09,10,11,12,1.0,1.0,1.0*30
$GPRMC,092923.080,A,4050.757,N,01413.784,E,039.7,248.9,021023,000.0,W*71
$GPGGA,092924.080,4050.752,N,01413.771,E,1,12,1.0,0.0,M,0.0,M,,*65
$GPGSA,A,3,01,02,03,04,05,06,07,08,09,10,11,12,1.0,1.0,1.0*30
$GPRMC,092924.080,A,4050.752,N,01413.771,E,039.2,243.4,021023,000.0,W*7A
$GPGGA,092925.080,4050.746,N,01413.759,E,1,12,1.0,0.0,M,0.0,M,,*6B
$GPGSA,A,3,01,02,03,04,05,06,07,08,09,10,11,12,1.0,1.0,1.0*30
$GPRMC,092925.080,A,4050.746,N,01413.759,E,037.3,247.3,021023,000.0,W*78
$GPGGA,092926.080,4050.741,N,01413.747,E,1,12,1.0,0.0,M,0.0,M,,*60
$GPGSA,A,3,01,02,03,04,05,06,07,08,09,10,11,12,1.0,1.0,1.0*30
$GPRMC,092926.080,A,4050.741,N,01413.747,E,041.5,245.2,021023,000.0,W*77
$GPGGA,092927.080,4050.735,N,01413.734,E,1,12,1.0,0.0,M,0.0,M,,*66
$GPGSA,A,3,01,02,03,04,05,06,07,08,09,10,11,12,1.0,1.0,1.0*30
$GPRMC,092927.080,A,4050.735,N,01413.734,E,037.3,247.3,021023,000.0,W*75
$GPGGA,092928.080,4050.730,N,01413.722,E,1,12,1.0,0.0,M,0.0,M,,*6B
$GPGSA,A,3,01,02,03,04,05,06,07,08,09,10,11,12,1.0,1.0,1.0*30
$GPRMC,092928.080,A,4050.730,N,01413.722,E,039.2,243.4,021023,000.0,W*74
$GPGGA,092929.080,4050.724,N,01413.710,E,1,12,1.0,0.0,M,0.0,M,,*6E
$GPGSA,A,3,01,02,03,04,05,06,07,08,09,10,11,12,1.0,1.0,1.0*30
$GPRMC,092929.080,A,4050.724,N,01413.710,E,037.3,247.3,021023,000.0,W*7D
$GPGGA,092930.080,4050.719,N,01413.698,E,1,12,1.0,0.0,M,0.0,M,,*69
$GPGSA,A,3,01,02,03,04,05,06,07,08,09,10,11,12,1.0,1.0,1.0*30
$GPRMC,092930.080,A,4050.719,N,01413.698,E,041.5,245.2,021023,000.0,W*7E
$GPGGA,092931.080,4050.713,N,01413.685,E,1,12,1.0,0.0,M,0.0,M,,*6E
$GPGSA,A,3,01,02,03,04,05,06,07,08,09,10,11,12,1.0,1.0,1.0*30
$GPRMC,092931.080,A,4050.713,N,01413.685,E,037.3,247.3,021023,000.0,W*7D
$GPGGA,092932.080,4050.708,N,01413.673,E,1,12,1.0,0.0,M,0.0,M,,*6E
$GPGSA,A,3,01,02,03,04,05,06,07,08,09,10,11,12,1.0,1.0,1.0*30
$GPRMC,092932.080,A,4050.708,N,01413.673,E,039.2,243.4,021023,000.0,W*71
$GPGGA,092933.080,4050.702,N,01413.661,E,1,12,1.0,0.0,M,0.0,M,,*66
$GPGSA,A,3,01,02,03,04,05,06,07,08,09,10,11,12,1.0,1.0,1.0*30
$GPRMC,092933.080,A,4050.702,N,01413.661,E,037.3,247.3,021023,000.0,W*75
$GPGGA,092934.080,4050.697,N,01413.649,E,1,12,1.0,0.0,M,0.0,M,,*66
$GPGSA,A,3,01,02,03,04,05,06,07,08,09,10,11,12,1.0,1.0,1.0*30
$GPRMC,092934.080,A,4050.697,N,01413.649,E,041.5,245.2,021023,000.0,W*71
$GPGGA,092935.080,4050.691,N,01413.636,E,1,12,1.0,0.0,M,0.0,M,,*69
$GPGSA,A,3,01,02,03,04,05,06,07,08,09,10,11,12,1.0,1.0,1.0*30
$GPRMC,092935.080,A,4050.691,N,01413.636,E,037.3,247.3,021023,000.0,W*7A
$GPGGA,092936.080,4050.686,N,01413.624,E,1,12,1.0,0.0,M,0.0,M,,*6F
$GPGSA,A,3,01,02,03,04,05,06,07,08,09,10,11,12,1.0,1.0,1.0*30
$GPRMC,092936.080,A,4050.686,N,01413.624,E,039.2,243.4,021023,000.0,W*70
$GPGGA,092937.080,4050.680,N,01413.612,E,1,12,1.0,0.0,M,0.0,M,,*6D
$GPGSA,A,3,01,02,03,04,05,06,07,08,09,10,11,12,1.0,1.0,1.0*30
$GPRMC,092937.080,A,4050.680,N,01413.612,E,037.3,247.3,021023,000.0,W*7E
$GPGGA,092938.080,4050.675,N,01413.600,E,1,12,1.0,0.0,M,0.0,M,,*6B
$GPGSA,A,3,01,02,03,04,05,06,07,08,09,10,11,12,1.0,1.0,1.0*30
$GPRMC,092938.080,A,4050.675,N,01413.600,E,041.5,245.2,021023,000.0,W*7C
$GPGGA,092939.080,4050.669,N,01413.587,E,1,12,1.0,0.0,M,0.0,M,,*6B
$GPGSA,A,3,01,02,03,04,05,06,07,08,09,10,11,12,1.0,1.0,1.0*30
$GPRMC,092939.080,A,4050.669,N,01413.587,E,037.3,247.3,021023,000.0,W*78
$GPGGA,092940.080,4050.664,N,01413.575,E,1,12,1.0,0.0,M,0.0,M,,*65
$GPGSA,A,3,01,02,03,04,05,06,07,08,09,10,11,12,1.0,1.0,1.0*30
$GPRMC,092940.080,A,4050.664,N,01413.575,E,039.2,243.4,021023,000.0,W*7A
$GPGGA,092941.080,4050.658,N,01413.563,E,1,12,1.0,0.0,M,0.0,M,,*6C
$GPGSA,A,3,01,02,03,04,05,06,07,08,09,10,11,12,1.0,1.0,1.0*30
$GPRMC,092941.080,A,4050.658,N,01413.563,E,039.7,248.9,021023,000.0,W*70
$GPGGA,092942.080,4050.653,N,01413.550,E,1,12,1.0,0.0,M,0.0,M,,*64
$GPGSA,A,3,01,02,03,04,05,06,07,08,09,10,11,12,1.0,1.0,1.0*30
$GPRMC,092942.080,A,4050.653,N,01413.550,E,039.2,243.4,021023,000.0,W*7B
$GPGGA,092943.080,4050.647,N,01413.538,E,1,12,1.0,0.0,M,0.0,M,,*6E
$GPGSA,A,3,01,02,03,04,05,06,07,08,09,10,11,12,1.0,1.0,1.0*30
$GPRMC,092943.080,A,4050.647,N,01413.538,E,037.3,247.3,021023,000.0,W*7D
$GPGGA,092944.080,4050.642,N,01413.526,E,1,12,1.0,0.0,M,0.0,M,,*63
$GPGSA,A,3,01,02,03,04,05,06,07,08,09,10,11,12,1.0,1.0,1.0*30
$GPRMC,092944.080,A,4050.642,N,01413.526,E,039.6,149.1,021023,000.0,W*74
$GPGGA,092945.080,4050.632,N,01413.532,E,1,12,1.0,0.0,M,0.0,M,,*60
$GPGSA,A,3,01,02,03,04,05,06,07,08,09,10,11,12,1.0,1.0,1.0*30
$GPRMC,092945.080,A,4050.632,N,01413.532,E,039.6,149.1,021023,000.0,W*77
$GPGGA,092946.080,4050.622,N,01413.538,E,1,12,1.0,0.0,M,0.0,M,,*68
$GPGSA,A,3,01,02,03,04,05,06,07,08,09,10,11,12,1.0,1.0,1.0*30
$GPRMC,092946.080,A,4050.622,N,01413.538,E,036.3,146.4,021023,000.0,W*7F
$GPGGA,092947.080,4050.613,N,01413.544,E,1,12,1.0,0.0,M,0.0,M,,*60
$GPGSA,A,3,01,02,03,04,05,06,07,08,09,10,11,12,1.0,1.0,1.0*30
$GPRMC,092947.080,A,4050.613,N,01413.544,E,039.6,149.1,021023,000.0,W*77
$GPGGA,092948.080,4050.603,N,01413.550,E,1,12,1.0,0.0,M,0.0,M,,*6B
$GPGSA,A,3,01,02,03,04,05,06,07,08,09,10,11,12,1.0,1.0,1.0*30
$GPRMC,092948.080,A,4050.603,N,01413.550,E,039.6,149.1,021023,000.0,W*7C
$GPGGA,092949.080,4050.593,N,01413.556,E,1,12,1.0,0.0,M,0.0,M,,*66
$GPGSA,A,3,01,02,03,04,05,06,07,08,09,10,11,12,1.0,1.0,1.0*30
$GPRMC,092949.080,A,4050.593,N,01413.556,E,039.6,149.1,021023,000.0,W*71
$GPGGA,092950.080,4050.583,N,01413.562,E,1,12,1.0,0.0,M,0.0,M,,*68
$GPGSA,A,3,01,02,03,04,05,06,07,08,09,10,11,12,1.0,1.0,1.0*30
$GPRMC,092950.080,A,4050.583,N,01413.562,E,039.6,149.1,021023,000.0,W*7F
$GPGGA,092951.080,4050.573,N,01413.568,E,1,12,1.0,0.0,M,0.0,M,,*6C
$GPGSA,A,3,01,02,03,04,05,06,07,08,09,10,11,12,1.0,1.0,1.0*30
$GPRMC,092951.080,A,4050.573,N,01413.568,E,039.6,149.1,021023,000.0,W*7B
$GPGGA,092952.080,4050.563,N,01413.574,E,1,12,1.0,0.0,M,0.0,M,,*63
$GPGSA,A,3,01,02,03,04,05,06,07,08,09,10,11,12,1.0,1.0,1.0*30
$GPRMC,092952.080,A,4050.563,N,01413.574,E,036.3,146.4,021023,000.0,W*74
$GPGGA,092953.080,4050.554,N,01413.580,E,1,12,1.0,0.0,M,0.0,M,,*6D
$GPGSA,A,3,01,02,03,04,05,06,07,08,09,10,11,12,1.0,1.0,1.0*30
$GPRMC,092953.080,A,4050.554,N,01413.580,E,039.6,149.1,021023,000.0,W*7A
$GPGGA,092954.080,4050.544,N,01413.586,E,1,12,1.0,0.0,M,0.0,M,,*6D
$GPGSA,A,3,01,02,03,04,05,06,07,08,09,10,11,12,1.0,1.0,1.0*30
$GPRMC,092954.080,A,4050.544,N,01413.586,E,039.6,149.1,021023,000.0,W*7A
$GPGGA,092955.080,4050.534,N,01413.592,E,1,12,1.0,0.0,M,0.0,M,,*6E
$GPGSA,A,3,01,02,03,04,05,06,07,08,09,10,11,12,1.0,1.0,1.0*30
$GPRMC,092955.080,A,4050.534,N,01413.592,E,039.6,149.1,021023,000.0,W*79
$GPGGA,092956.080,4050.524,N,01413.598,E,1,12,1.0,0.0,M,0.0,M,,*66
$GPGSA,A,3,01,02,03,04,05,06,07,08,09,10,11,12,1.0,1.0,1.0*30
$GPRMC,092956.080,A,4050.524,N,01413.598,E,038.5,153.5,021023,000.0,W*7C
$GPGGA,092957.080,4050.514,N,01413.603,E,1,12,1.0,0.0,M,0.0,M,,*65
$GPGSA,A,3,01,02,03,04,05,06,07,08,09,10,11,12,1.0,1.0,1.0*30
$GPRMC,092957.080,A,4050.514,N,01413.603,E,036.3,146.4,021023,000.0,W*72
$GPGGA,092958.080,4050.505,N,01413.609,E,1,12,1.0,0.0,M,0.0,M,,*60
$GPGSA,A,3,01,02,03,04,05,06,07,08,09,10,11,12,1.0,1.0,1.0*30
$GPRMC,092958.080,A,4050.505,N,01413.609,E,039.6,149.1,021023,000.0,W*77
$GPGGA,092959.080,4050.495,N,01413.615,E,1,12,1.0,0.0,M,0.0,M,,*64
$GPGSA,A,3,01,02,03,04,05,06,07,08,09,10,11,12,1.0,1.0,1.0*30
$GPRMC,092959.080,A,4050.495,N,01413.615,E,039.6,149.1,021023,000.0,W*73
$GPGGA,093000.080,4050.485,N,01413.621,E,1,12,1.0,0.0,M,0.0,M,,*66
$GPGSA,A,3,01,02,03,04,05,06,07,08,09,10,11,12,1.0,1.0,1.0*30
$GPRMC,093000.080,A,4050.485,N,01413.621,E,039.6,149.1,021023,000.0,W*71
$GPGGA,093001.080,4050.475,N,01413.627,E,1,12,1.0,0.0,M,0.0,M,,*6E
$GPGSA,A,3,01,02,03,04,05,06,07,08,09,10,11,12,1.0,1.0,1.0*30
$GPRMC,093001.080,A,4050.475,N,01413.627,E,039.6,149.1,021023,000.0,W*79
$GPGGA,093002.080,4050.465,N,01413.633,E,1,12,1.0,0.0,M,0.0,M,,*69
$GPGSA,A,3,01,02,03,04,05,06,07,08,09,10,11,12,1.0,1.0,1.0*30
$GPRMC,093002.080,A,4050.465,N,01413.633,E,036.3,146.4,021023,000.0,W*7E
$GPGGA,093003.080,4050.456,N,01413.639,E,1,12,1.0,0.0,M,0.0,M,,*62
$GPGSA,A,3,01,02,03,04,05,06,07,08,09,10,11,12,1.0,1.0,1.0*30
$GPRMC,093003.080,A,4050.456,N,01413.639,E,039.6,149.1,021023,000.0,W*75
$GPGGA,093004.080,4050.446,N,01413.645,E,1,12,1.0,0.0,M,0.0,M,,*6F
$GPGSA,A,3,01,02,03,04,05,06,07,08,09,10,11,12,1.0,1.0,1.0*30
$GPRMC,093004.080,A,4050.446,N,01413.645,E,039.6,149.1,021023,000.0,W*78
$GPGGA,093005.080,4050.436,N,01413.651,E,1,12,1.0,0.0,M,0.0,M,,*6C
$GPGSA,A,3,01,02,03,04,05,06,07,08,09,10,11,12,1.0,1.0,1.0*30
$GPRMC,093005.080,A,4050.436,N,01413.651,E,039.6,149.1,021023,000.0,W*7B
$GPGGA,093006.080,4050.426,N,01413.657,E,1,12,1.0,0.0,M,0.0,M,,*68
$GPGSA,A,3,01,02,03,04,05,06,07,08,09,10,11,12,1.0,1.0,1.0*30
$GPRMC,093006.080,A,4050.426,N,01413.657,E,039.6,149.1,021023,000.0,W*7F
$GPGGA,093007.080,4050.416,N,01413.663,E,1,12,1.0,0.0,M,0.0,M,,*6D
$GPGSA,A,3,01,02,03,04,05,06,07,08,09,10,11,12,1.0,1.0,1.0*30
$GPRMC,093007.080,A,4050.416,N,01413.663,E,036.3,146.4,021023,000.0,W*7A
$GPGGA,093008.080,4050.407,N,01413.669,E,1,12,1.0,0.0,M,0.0,M,,*68
$GPGSA,A,3,01,02,03,04,05,06,07,08,09,10,11,12,1.0,1.0,1.0*30
$GPRMC,093008.080,A,4050.407,N,01413.669,E,039.6,149.1,021023,000.0,W*7F
$GPGGA,093009.080,4050.397,N,01413.675,E,1,12,1.0,0.0,M,0.0,M,,*6A
$GPGSA,A,3,01,02,03,04,05,06,07,08,09,10,11,12,1.0,1.0,1.0*30
$GPRMC,093009.080,A,4050.397,N,01413.675,E,039.6,149.1,021023,000.0,W*7D
$GPGGA,093010.080,4050.387,N,01413.681,E,1,12,1.0,0.0,M,0.0,M,,*68
$GPGSA,A,3,01,02,03,04,05,06,07,08,09,10,11,12,1.0,1.0,1.0*30
$GPRMC,093010.080,A,4050.387,N,01413.681,E,039.6,149.1,021023,000.0,W*7F
$GPGGA,093011.080,4050.377,N,01413.687,E,1,12,1.0,0.0,M,0.0,M,,*60
$GPGSA,A,3,01,02,03,04,05,06,07,08,09,10,11,12,1.0,1.0,1.0*30
$GPRMC,093011.080,A,4050.377,N,01413.687,E,039.6,149.1,021023,000.0,W*77
$GPGGA,093012.080,4050.367,N,01413.693,E,1,12,1.0,0.0,M,0.0,M,,*67
$GPGSA,A,3,01,02,03,04,05,06,07,08,09,10,11,12,1.0,1.0,1.0*30
$GPRMC,093012.080,A,4050.367,N,01413.693,E,036.3,146.4,021023,000.0,W*70
$GPGGA,093013.080,4050.358,N,01413.699,E,1,12,1.0,0.0,M,0.0,M,,*60
$GPGSA,A,3,01,02,03,04,05,06,07,08,09,10,11,12,1.0,1.0,1.0*30
$GPRMC,093013.080,A,4050.358,N,01413.699,E,039.6,149.1,021023,000.0,W*77
$GPGGA,093014.080,4050.348,N,01413.705,E,1,12,1.0,0.0,M,0.0,M,,*62
$GPGSA,A,3,01,02,03,04,05,06,07,08,09,10,11,12,1.0,1.0,1.0*30
$GPRMC,093014.080,A,4050.348,N,01413.705,E,039.6,149.1,021023,000.0,W*75
$GPGGA,093015.080,4050.338,N,01413.711,E,1,12,1.0,0.0,M,0.0,M,,*61
$GPGSA,A,3,01,02,03,04,05,06,07,08,09,10,11,12,1.0,1.0,1.0*30
$GPRMC,093015.080,A,4050.338,N,01413.711,E,039.6,149.1,021023,000.0,W*76
$GPGGA,093016.080,4050.328,N,01413.717,E,1,12,1.0,0.0,M,0.0,M,,*65
$GPGSA,A,3,01,02,03,04,05,06,07,08,09,10,11,12,1.0,1.0,1.0*30
$GPRMC,093016.080,A,4050.328,N,01413.717,E,039.6,149.1,021023,000.0,W*72
$GPGGA,093017.080,4050.318,N,01413.723,E,1,12,1.0,0.0,M,0.0,M,,*60
$GPGSA,A,3,01,02,03,04,05,06,07,08,09,10,11,12,1.0,1.0,1.0*30
$GPRMC,093017.080,A,4050.318,N,01413.723,E,036.3,146.4,021023,000.0,W*77
$GPGGA,093018.080,4050.309,N,01413.729,E,1,12,1.0,0.0,M,0.0,M,,*65
$GPGSA,A,3,01,02,03,04,05,06,07,08,09,10,11,12,1.0,1.0,1.0*30
$GPRMC,093018.080,A,4050.309,N,01413.729,E,039.6,149.1,021023,000.0,W*72
$GPGGA,093019.080,4050.299,N,01413.735,E,1,12,1.0,0.0,M,0.0,M,,*61
$GPGSA,A,3,01,02,03,04,05,06,07,08,09,10,11,12,1.0,1.0,1.0*30
$GPRMC,093019.080,A,4050.299,N,01413.735,E,039.6,149.1,021023,000.0,W*76
$GPGGA,093020.080,4050.289,N,01413.741,E,1,12,1.0,0.0,M,0.0,M,,*69
$GPGSA,A,3,01,02,03,04,05,06,07,08,09,10,11,12,1.0,1.0,1.0*30
$GPRMC,093020.080,A,4050.289,N,01413.741,E,039.6,149.1,021023,000.0,W*7E
$GPGGA,093021.080,4050.279,N,01413.747,E,1,12,1.0,0.0,M,0.0,M,,*61
$GPGSA,A,3,01,02,03,04,05,06,07,08,09,10,11,12,1.0,1.0,1.0*30
$GPRMC,093021.080,A,4050.279,N,01413.747,E,039.6,149.1,021023,000.0,W*76
$GPGGA,093022.080,4050.269,N,01413.753,E,1,12,1.0,0.0,M,0.0,M,,*66
$GPGSA,A,3,01,02,03,04,05,06,07,08,09,10,11,12,1.0,1.0,1.0*30
$GPRMC,093022.080,A,4050.269,N,01413.753,E,036.3,146.4,021023,000.0,W*71
$GPGGA,093023.080,4050.260,N,01413.759,E,1,12,1.0,0.0,M,0.0,M,,*64
$GPGSA,A,3,01,02,03,04,05,06,07,08,09,10,11,12,1.0,1.0,1.0*30
$GPRMC,093023.080,A,4050.260,N,01413.759,E,039.6,149.1,021023,000.0,W*73
$GPGGA,093024.080,4050.250,N,01413.765,E,1,12,1.0,0.0,M,0.0,M,,*6F
$GPGSA,A,3,01,02,03,04,05,06,07,08,09,10,11,12,1.0,1.0,1.0*30
$GPRMC,093024.080,A,4050.250,N,01413.765,E,039.6,149.1,021023,000.0,W*78
$GPGGA,093025.080,4050.240,N,01413.771,E,1,12,1.0,0.0,M,0.0,M,,*6A
$GPGSA,A,3,01,02,03,04,05,06,07,08,09,10,11,12,1.0,1.0,1.0*30
$GPRMC,093025.080,A,4050.240,N,01413.771,E,039.6,149.1,021023,000.0,W*7D
$GPGGA,093026.080,4050.230,N,01413.777,E,1,12,1.0,0.0,M,0.0,M,,*68
$GPGSA,A,3,01,02,03,04,05,06,07,08,09,10,11,12,1.0,1.0,1.0*30
$GPRMC,093026.080,A,4050.230,N,01413.777,E,039.6,149.1,021023,000.0,W*7F
$GPGGA,093027.080,4050.220,N,01413.783,E,1,12,1.0,0.0,M,0.0,M,,*63
$GPGSA,A,3,01,02,03,04,05,06,07,08,09,10,11,12,1.0,1.0,1.0*30
$GPRMC,093027.080,A,4050.220,N,01413.783,E,036.3,146.4,021023,000.0,W*74
$GPGGA,093028.080,4050.211,N,01413.789,E,1,12,1.0,0.0,M,0.0,M,,*64
$GPGSA,A,3,01,02,03,04,05,06,07,08,09,10,11,12,1.0,1.0,1.0*30
$GPRMC,093028.080,A,4050.211,N,01413.789,E,038.5,153.5,021023,000.0,W*7E
$GPGGA,093029.080,4050.201,N,01413.794,E,1,12,1.0,0.0,M,0.0,M,,*68
$GPGSA,A,3,01,02,03,04,05,06,07,08,09,10,11,12,1.0,1.0,1.0*30
$GPRMC,093029.080,A,4050.201,N,01413.794,E,039.6,149.1,021023,000.0,W*7F
$GPGGA,093030.080,4050.191,N,01413.800,E,1,12,1.0,0.0,M,0.0,M,,*68
$GPGSA,A,3,01,02,03,04,05,06,07,08,09,10,11,12,1.0,1.0,1.0*30
$GPRMC,093030.080,A,4050.191,N,01413.800,E,039.6,149.1,021023,000.0,W*7F
$GPGGA,093031.080,4050.181,N,01413.806,E,1,12,1.0,0.0,M,0.0,M,,*6E
$GPGSA,A,3,01,02,03,04,05,06,07,08,09,10,11,12,1.0,1.0,1.0*30
$GPRMC,093031.080,A,4050.181,N,01413.806,E,039.6,149.1,021023,000.0,W*79
$GPGGA,093032.080,4050.171,N,01413.812,E,1,12,1.0,0.0,M,0.0,M,,*67
$GPGSA,A,3,01,02,03,04,05,06,07,08,09,10,11,12,1.0,1.0,1.0*30
$GPRMC,093032.080,A,4050.171,N,01413.812,E,036.3,146.4,021023,000.0,W*70
$GPGGA,093033.080,4050.162,N,01413.818,E,1,12,1.0,0.0,M,0.0,M,,*6E
$GPGSA,A,3,01,02,03,04,05,06,07,08,09,10,11,12,1.0,1.0,1.0*30
$GPRMC,093033.080,A,4050.162,N,01413.818,E,039.6,149.1,021023,000.0,W*79
$GPGGA,093034.080,4050.152,N,01413.824,E,1,12,1.0,0.0,M,0.0,M,,*65
$GPGSA,A,3,01,02,03,04,05,06,07,08,09,10,11,12,1.0,1.0,1.0*30
$GPRMC,093034.080,A,4050.152,N,01413.824,E,039.6,149.1,021023,000.0,W*72
$GPGGA,093035.080,4050.142,N,01413.830,E,1,12,1.0,0.0,M,0.0,M,,*60
$GPGSA,A,3,01,02,03,04,05,06,07,08,09,10,11,12,1.0,1.0,1.0*30
$GPRMC,093035.080,A,4050.142,N,01413.830,E,039.6,149.1,021023,000.0,W*77
$GPGGA,093036.080,4050.132,N,01413.836,E,1,12,1.0,0.0,M,0.0,M,,*62
$GPGSA,A,3,01,02,03,04,05,06,07,08,09,10,11,12,1.0,1.0,1.0*30
$GPRMC,093036.080,A,4050.132,N,01413.836,E,039.6,149.1,021023,000.0,W*75
$GPGGA,093037.080,4050.122,N,01413.842,E,1,12,1.0,0.0,M,0.0,M,,*61
$GPGSA,A,3,01,02,03,04,05,06,07,08,09,10,11,12,1.0,1.0,1.0*30
$GPRMC,093037.080,A,4050.122,N,01413.842,E,036.3,146.4,021023,000.0,W*76
$GPGGA,093038.080,4050.113,N,01413.848,E,1,12,1.0,0.0,M,0.0,M,,*66
$GPGSA,A,3,01,02,03,04,05,06,07,08,09,10,11,12,1.0,1.0,1.0*30
$GPRMC,093038.080,A,4050.113,N,01413.848,E,039.6,149.1,021023,000.0,W*71
$GPGGA,093039.080,4050.103,N,01413.854,E,1,12,1.0,0.0,M,0.0,M,,*6B
$GPGSA,A,3,01,02,03,04,05,06,07,08,09,10,11,12,1.0,1.0,1.0*30
$GPRMC,093039.080,A,4050.103,N,01413.854,E,039.6,149.1,021023,000.0,W*7C
$GPGGA,093040.080,4050.093,N,01413.860,E,1,12,1.0,0.0,M,0.0,M,,*6A
$GPGSA,A,3,01,02,03,04,05,06,07,08,09,10,11,12,1.0,1.0,1.0*30
$GPRMC,093040.080,A,4050.093,N,01413.860,E,039.6,149.1,021023,000.0,W*7D
$GPGGA,093041.080,4050.083,N,01413.866,E,1,12,1.0,0.0,M,0.0,M,,*6C
$GPGSA,A,3,01,02,03,04,05,06,07,08,09,10,11,12,1.0,1.0,1.0*30
$GPRMC,093041.080,A,4050.083,N,01413.866,E,039.6,149.1,021023,000.0,W*7B
$GPGGA,093042.080,4050.073,N,01413.872,E,1,12,1.0,0.0,M,0.0,M,,*65
$GPGSA,A,3,01,02,03,04,05,06,07,08,09,10,11,12,1.0,1.0,1.0*30
$GPRMC,093042.080,A,4050.073,N,01413.872,E,036.3,146.4,021023,000.0,W*72
$GPGGA,093043.080,4050.064,N,01413.878,E,1,12,1.0,0.0,M,0.0,M,,*68
$GPGSA,A,3,01,02,03,04,05,06,07,08,09,10,11,12,1.0,1.0,1.0*30
$GPRMC,093043.080,A,4050.064,N,01413.878,E,039.6,149.1,021023,000.0,W*7F
$GPGGA,093044.080,4050.054,N,01413.884,E,1,12,1.0,0.0,M,0.0,M,,*6F
$GPGSA,A,3,01,02,03,04,05,06,07,08,09,10,11,12,1.0,1.0,1.0*30
$GPRMC,093044.080,A,4050.054,N,01413.884,E,039.6,149.1,021023,000.0,W*78
$GPGGA,093045.080,4050.044,N,01413.890,E,1,12,1.0,0.0,M,0.0,M,,*6A
$GPGSA,A,3,01,02,03,04,05,06,07,08,09,10,11,12,1.0,1.0,1.0*30
$GPRMC,093045.080,A,4050.044,N,01413.890,E,039.6,149.1,021023,000.0,W*7D
$GPGGA,093046.080,4050.034,N,01413.896,E,1,12,1.0,0.0,M,0.0,M,,*68
$GPGSA,A,3,01,02,03,04,05,06,07,08,09,10,11,12,1.0,1.0,1.0*30
$GPRMC,093046.080,A,4050.034,N,01413.896,E,039.6,149.1,021023,000.0,W*7F
$GPGGA,093047.080,4050.024,N,01413.902,E,1,12,1.0,0.0,M,0.0,M,,*64
$GPGSA,A,3,01,02,03,04,05,06,07,08,09,10,11,12,1.0,1.0,1.0*30
$GPRMC,093047.080,A,4050.024,N,01413.902,E,036.3,146.4,021023,000.0,W*73
$GPGGA,093048.080,4050.015,N,01413.908,E,1,12,1.0,0.0,M,0.0,M,,*63
$GPGSA,A,3,01,02,03,04,05,06,07,08,09,10,11,12,1.0,1.0,1.0*30
$GPRMC,093048.080,A,4050.015,N,01413.908,E,039.6,149.1,021023,000.0,W*74
